confirmationNo,Latitude,Longitude,formattedAddress,Original FSA,New FSA
1122555,49.933584,-97.0817975,"524 Oakland Avenue, Winnipeg, MB R2G 3G6, Canada",R2G,R2K
1123562,49.8089651,-97.1366573,"71 Curry Place, Winnipeg, MB R2N 2Z5, Canada",R2N,R3T
1124775,49.9193023,-97.0810684,"710 Grey Street, Winnipeg, MB R2H 2A6, Canada",R2H,R2K
1125920,50.0789845,-96.8414243,"73013 Pioneer Road, East Selkirk, MB R0E 0M0, Canada",R0E,R1A
1126307,49.9002054,-97.0277611,"1500 Plessis Road, Winnipeg, MB R2C 5G6, Canada",R2C,R3W
1126389,49.8655406,-97.1803725,"1350 Grosvenor Avenue, Winnipeg, MB R3M 0P2, Canada",R3M,R3N
1126435,49.8399223,-97.006376,"884 Symington Road South, Winnipeg, MB R3T 3G7, Canada",R3T,R2C
1126677,49.9367227,-97.2053478,"2221 King Edward Street, Winnipeg, MB R3H 0N1, Canada",R3H,R2R
1126948,49.8954221,-97.1385145,"Td Storefront, 365 Main Stconcourse, Winnipeg, MB R0E 0C0, Canada",R0E,R3B
1127264,49.1825625,-97.9423479,"352 7 Street, Winkler, MB R3H 0N1, Canada",R3H,R6W
1127733,49.8944799,-97.1406468,"246 Portage Avenue, Winnipeg, MB R2X 2H6, Canada",R2X,R3C
1128762,49.821849,-97.1080139,"102 Vista Avenue, Winnipeg, MB R2M 4Y4, Canada",R2M,R2N
1129199,49.7633702,-97.1462303,"St Norbert Collegiate, 870 Sainte Therese Avenue, Winnipeg, MB R3T 1H8, Canada",R3T,R3V
1129461,49.8847196,-97.1412015,"15 Carlton Street #1003, Winnipeg, MB R3P 2H8, Canada",R3P,R3C
1129476,49.8665304,-97.1530787,"753 Garwood Avenue, Winnipeg, MB R2X 6H2, Canada",R2X,R3M
1130219,49.9129043,-97.1142244,"170 Poplar Avenue, Winnipeg, MB R3E 2V8, Canada",R3E,R2L
1130466,49.8549358,-97.1739042,"Pan Am Pool, 25 Poseidon Bay, Winnipeg, MB R3B 1J1, Canada",R3B,R3M
1130686,49.8456924,-97.1650367,"45 Jupiter Bay, Winnipeg, MB R2M 3Z9, Canada",R2M,R3T
1130875,49.8921327,-97.1532439,"515 Portage Avenue, Winnipeg, MB R3E 3H4, Canada",R3E,R3B
1131268,49.925259,-97.2142788,"2116 Logan Avenue, Winnipeg, MB R3L 2R2, Canada",R3L,R2R
1131310,49.9059642,-97.1371509,"360 Princess Street, Winnipeg, MB R3B 1M7, Canada",R3B,R3A
1132167,51.1496809,-100.0499383,"Dauphin Highways Building, Dauphin, MB R7A 1L9, Canada",R7A,R7N
1132168,51.1496809,-100.0499383,"Dauphin Provincial Buildings, Dauphin, MB R7A 1L9, Canada",R7A,R7N
1132271,49.8827858,-97.1149359,"291 Goulet Street A207, Winnipeg, MB R3R 0E5, Canada",R3R,R2H
1132272,49.8344479,-97.1142448,"1106 Saint Mary's Road #305, Winnipeg, MB R3R 0E5, Canada",R3R,R2M
1132274,49.8569736,-97.1584069,"630 Guelph Street #305, Winnipeg, MB R3R 0E5, Canada",R3R,R3M
1133069,49.8746729,-97.2578298,"2510 Portage Avenue, Winnipeg, MB R3R 0E5, Canada",R3R,R3J
1133203,49.8788739,-97.153705,"270 Roslyn Road, Winnipeg, MB R3R 0E5, Canada",R3R,R3L
1133245,49.9715896,-98.2821564,"32_ 5 Street Southeast, Portage la Prairie, MB R3H 0J9, Canada",R3H,R1N
1133410,49.8549358,-97.1739042,"Pan Am Pool, Poseidon Bay, Winnipeg, MB R2K 1W2, Canada",R2K,R3M
1133782,49.8847646,-97.2804081,"700 Setter Street, Winnipeg, MB R3R 0E9, Canada",R3R,R2Y
1133808,49.884868,-97.2198799,"358 Inglewood Street, Winnipeg, MB R2R 0G8, Canada",R2R,R3J
1134315,49.9450161,-97.1109416,"2021 Main Street, Winnipeg, MB R2V 2B9, Canada",R2V,R2G
1134318,49.9449675,-97.1659966,"Elwick School, 30 Maberley Road, Winnipeg, MB R2V 4J8, Canada",R2V,R2P
1134567,49.8710197,-97.1680164,"172 Harvard Avenue, Winnipeg, MB R3H 0N1, Canada",R3H,R3M
1134671,49.9195773,-97.0807714,"Kimberly Gardens, Grey Street, Winnipeg, MB R2E 1J5, Canada",R2E,R2K
1136958,49.87708,-97.29332,"381 Westwood Drive #67, Winnipeg, MB R3R 1A5, Canada",R3R,R3K
1137019,49.8768295,-97.2764666,"186 Oakdean Boulevard, Winnipeg, MB R2M 3Z9, Canada",R2M,R3J
1137386,49.8965215,-97.1366013,"167 Lombard Avenue #607, Winnipeg, MB R3G 2V4, Canada",R3G,R3B
1137703,49.8852967,-97.2587158,"2300 Ness Avenue, Winnipeg, MB R2J 0H3, Canada",R2J,R3J
1138239,49.8639187,-97.208699,"350 Doncaster Street, Winnipeg, MB R3M 3C5, Canada",R3M,R3N
1138240,49.8640832,-97.2086413,"342 Doncaster Street, Winnipeg, MB R3M 3C5, Canada",R3M,R3N
1138248,49.8657481,-97.2062146,"295 Kenaston Boulevard, Winnipeg, MB R3M 1V5, Canada",R3M,R3N
1138831,49.8687526,-97.1447031,"420 Pembina Highway, Winnipeg, MB R3L 2E9, Canada",R3L,R3M
1138895,49.8686365,-97.2567616,"3401 Roblin Boulevard, Winnipeg, MB R3E 0M1, Canada",R3E,R3R
1139280,49.8746729,-97.2578298,"2510 Portage Avenue, Winnipeg, MB R3R 0E5, Canada",R3R,R3J
1139608,49.8697694,-97.2604567,"6420 Vialoux Drive #63/64, Winnipeg, MB R3G 3J4, Canada",R3G,R3R
1139674,49.9731127,-98.2924804,"Portage Campus, Portage la Prairie, MB R3H 0J9, Canada",R3H,R1N
1139840,49.86448716,-96.94111935,"22139 Southwyn Rd   Riel Station, Rural, MB R0E 0K0, Canada",R0E,R2C
1141185,49.9566928,-97.1718787,"1456 Jefferson Avenue, Winnipeg, MB R3R 0E4, Canada",R3R,R2P
1141641,50.0822955,-96.9435771,"6 Stevens Avenue East, Lockport, MB R2M 0K2, Canada",R2M,R1A
1141700,50.1550594,-96.8872751,"825 Manitoba Avenue, Selkirk, MB R3H 0N1, Canada",R3H,R1A
1141721,50.0557121,-96.9800188,"5696 Henderson Highway, Narol, MB R1C 0B4, Canada",R1C,R1B
1141732,49.8746729,-97.2578298,"2510 Portage Avenue, Winnipeg, MB R3R 0E5, Canada",R3R,R3J
1141737,49.9036025,-97.1571063,"820 Sherbrook Street, Winnipeg, MB R3A 1R9, Canada",R3A,R3E
1141953,49.9234162,-97.1964142,"1810 Midmar Avenue, Winnipeg, MB R2L 1C2, Canada",R2L,R2R
1142504,49.89743,-97.1060117,"172 Archibald Street, Winnipeg, MB R2J 0W3, Canada",R2J,R2H
1142648,51.9462715,-98.0823823,"Dauphin River Road, Dauphin River, MB R0C 1J0, Canada",R0C,R0L
1143187,49.880265,-97.271524,"200 Ronald Street #109, Winnipeg, MB R3R 0E5, Canada",R3R,R3J
1143304,49.5223797,-96.6907425,"22 Reimer Avenue, Steinbach, MB R0A 0C0, Canada",R0A,R5G
1143570,49.9170858,-97.0983815,"545 Watt Street, Winnipeg, MB R3B 1J1, Canada",R3B,R2K
1143743,49.8746729,-97.2578298,"2510 Portage Avenue #703, Winnipeg, MB R3R 0E5, Canada",R3R,R3J
1143749,49.8746729,-97.2578298,"2510 Portage Avenue #319, Winnipeg, MB R3R 0E5, Canada",R3R,R3J
1143782,54.7751389,-101.8493669,"North Of 53 Consumers Co-Op Cliff Lake Road, Flin Flon, MB R2W 1T9, Canada",R2W,R8A
1144105,49.9010692,-97.0651665,"66 Stapon Road, Winnipeg, MB R2C 3M2, Canada",R2C,R3W
1144500,49.9228428,-97.1519271,"730 Aberdeen Avenue, Winnipeg, MB R3E 2V8, Canada",R3E,R2W
1144729,49.8957294,-97.2210017,"958 Ferry Road, Winnipeg, MB R2H 0Y3, Canada",R2H,R3J
1144907,49.8746729,-97.2578298,"2510 Portage Avenue #613, Winnipeg, MB R3R 0E5, Canada",R3R,R3J
1144912,49.8746729,-97.2578298,"2510 Portage Avenue #403, Winnipeg, MB R3R 0E5, Canada",R3R,R3J
1145326,49.8882437,-97.1471224,"401 York Avenue, Winnipeg, MB R2J 0A4, Canada",R2J,R3C
1145398,49.8561617,-97.2834542,"530 Dieppe Road, Winnipeg, MB R3H 0N1, Canada",R3H,R3R
1145893,49.880265,-97.271524,"200 Ronald Street #102, Winnipeg, MB R3R 0E5, Canada",R3R,R3J
1146239,49.9183004,-97.2119707,"2055 Notre Dame Avenue, Winnipeg, MB R3H 0J9, Canada",R3H,R2R
1146299,49.8834731,-97.2814252,"700 Setter Street, Winnipeg, MB R2V 0L5, Canada",R2V,R2Y
1146450,49.8788739,-97.153705,"270 Roslyn Road, Winnipeg, MB R3G 3J4, Canada",R3G,R3L
1146671,49.8834731,-97.2814252,"700 Setter Street 8Th Floor, Winnipeg, MB R2V 0L5, Canada",R2V,R2Y
1146673,49.8834731,-97.2814252,"700 Setter Street, Winnipeg, MB R2V 0L5, Canada",R2V,R2Y
1147173,49.880265,-97.271524,"200 Ronald Street #918, Winnipeg, MB R3R 0E5, Canada",R3R,R3J
1147234,49.90553,-97.19932,"1359 Saint James Street, Winnipeg, MB R2H 0K9, Canada",R2H,R3E
1147389,49.8113039,-97.1313242,"210 Dysart Road, Winnipeg, MB R2N 2Z5, Canada",R2N,R3T
1147552,49.8693316,-97.2103803,"150 Tuxedo Avenue #16, Winnipeg, MB R3N 1A1, Canada",R3N,R3P
1147565,49.8692368,-97.2090804,"130 Tuxedo Avenue #14, Winnipeg, MB R3N 1A1, Canada",R3N,R3P
1147918,49.9183004,-97.2119707,"2055 Notre Dame Avenue, Winnipeg, MB R3H 0J9, Canada",R3H,R2R
1148095,49.8827858,-97.1149359,"291 Goulet Street #402, Winnipeg, MB R3A 1S7, Canada",R3A,R2H
1148483,49.8909693,-97.1186093,"607 Langevin Street, Winnipeg, MB R3H 0N1, Canada",R3H,R2H
1148644,49.9498615,-97.1296619,"1085 Diplomat Drive, Winnipeg, MB R2X 1G4, Canada",R2X,R2V
1148876,49.8693316,-97.2103803,"150 Tuxedo Avenue #16, Winnipeg, MB R3N 1A1, Canada",R3N,R3P
1149336,49.8089651,-97.1366573,"71 Curry Place, Winnipeg, MB R2N 2Z5, Canada",R2N,R3T
1149641,49.8746281,-97.2193072,"405 Assiniboine Avenue, Winnipeg, MB R3L 0C6, Canada",R3L,R3J
1149644,49.8525202,-97.1005633,"20 Morrow Avenue #107, Winnipeg, MB R3M 1A1, Canada",R3M,R2M
1149814,49.8746729,-97.2578298,"2510 Portage Avenue, Winnipeg, MB R3R 0E5, Canada",R3R,R3J
1150079,49.8162261,-99.6442218,"Shilo Road L-105, Shilo, MB R0K 2A0, Canada",R0K,R7A
1150119,49.9414228,-97.1183357,"273 Royal Avenue, Winnipeg, MB R3V 1H6, Canada",R3V,R2V
1150163,49.8700652,-97.1094441,"24 Morier Avenue, Winnipeg, MB R3M 0C3, Canada",R3M,R2M
1150593,49.9183004,-97.2119707,"2055 Notre Dame Avenue, Winnipeg, MB R3H 0J9, Canada",R3H,R2R
1150655,49.9183004,-97.2119707,"2055 Notre Dame Avenue, Winnipeg, MB R3H 0J9, Canada",R3H,R2R
1151014,50.1550594,-96.8872751,"825 Manitoba Avenue, Selkirk, MB R3B 0P4, Canada",R3B,R1A
1151015,50.1550594,-96.8872751,"825 Manitoba Avenue, Selkirk, MB R3B 0P4, Canada",R3B,R1A
1151463,49.8663637,-97.1674643,"1095 Corydon Avenue, Winnipeg, MB R2K 3S8, Canada",R2K,R3M
1151466,49.8746729,-97.2578298,"2510 Portage Avenue #402, Winnipeg, MB R3V 1A2, Canada",R3V,R3J
1152352,49.8746729,-97.2578298,"2510 Portage Avenue #522, Winnipeg, MB R3R 0E5, Canada",R3R,R3J
1152965,49.89567,-97.21845,"900 Ferry Road, Winnipeg, MB R2H 0Y3, Canada",R2H,R3J
1153436,49.8746729,-97.2578298,"2510 Portage Avenue #718, Winnipeg, MB R3R 0E5, Canada",R3R,R3J
1153962,49.9407157,-97.1791656,"468 Sheppard Street, Winnipeg, MB R2W 1T9, Canada",R2W,R2X
1153963,49.8873895,-97.139319,"280 Broadway, Winnipeg, MB R3H 0N1, Canada",R3H,R3C
1154225,49.8954221,-97.1385145,"Building 64    17 Wing, Winnipeg, MB R1R 1R1, Canada",R1R,R3B
1154732,49.8746729,-97.2578298,"2510 Portage Avenue #309, Winnipeg, MB R3R 0E5, Canada",R3R,R3J
1154805,49.9222125,-97.1949953,"225 Keewatin Street #21, Winnipeg, MB R2R 0Z5, Canada",R2R,R3E
1154941,49.8746729,-97.2578298,"2510 Portage Avenue #619, Winnipeg, MB R3R 0E5, Canada",R3R,R3J
1155099,49.9379747,-97.103076,"85 Frasers Grove, Winnipeg, MB R3B 1J1, Canada",R3B,R2K
1155101,49.9379747,-97.103076,"85 Frasers Grove, Winnipeg, MB R3B 1J1, Canada",R3B,R2K
1155150,49.9222867,-97.194989,"235 Keewatin Street #1, Winnipeg, MB R2R 0Z5, Canada",R2R,R3E
1155151,49.9223609,-97.1949827,"245 Keewatin Street #2, Winnipeg, MB R2R 0Z5, Canada",R2R,R3E
1155597,49.8631173,-97.1097128,"35 Manitoba 1 Pr, MacGregor, MB R0H 0R0, Canada",R0H,R2M
1155732,49.8716433,-97.157789,"785 Dorchester Avenue, Winnipeg, MB R3R 0E5, Canada",R3R,R3M
1156517,49.7838036,-97.1561975,"3040 Pembina Highway, Winnipeg, MB R2X 1G4, Canada",R2X,R3T
1156657,49.8657643,-97.1345652,"524 Osborne Street, Winnipeg, MB R3B 1J1, Canada",R3B,R3L
1156684,49.9013852,-96.9982934,"1101 Wabasha Street, Winnipeg, MB R3C 1G6, Canada",R3C,R2C
1156956,49.8794065,-97.1745712,"1012 Wolseley Avenue, Winnipeg, MB R3C 0M7, Canada",R3C,R3G
1157508,49.8933183,-97.1069676,"1760 Portage, Winnipeg, MB R2J 0C9, Canada",R2J,R2H
1157900,49.8746729,-97.2578298,"2510 Portage Avenue #307, Winnipeg, MB R3R 0E5, Canada",R3R,R3J
1157985,49.8746729,-97.2578298,"2510 Portage Avenue #612, Winnipeg, MB R3R 0E5, Canada",R3R,R3J
1158115,49.8288138,-97.1509239,"1686 Pembina Highway, Winnipeg, MB R3C 8K9, Canada",R3C,R3T
1158780,49.8264942,-97.150717,"1750 Pembina Highway, Winnipeg, MB R3P 2H8, Canada",R3P,R3T
1159296,49.8083372,-97.1513329,"1 Snow Street Unit 178, Winnipeg, MB R3P 0P8, Canada",R3P,R3T
1159455,49.8760387,-97.1780787,"951 Wellington Crescent, Winnipeg, MB R3M 0A7, Canada",R3M,R3N
1159601,49.8160847,-97.1507719,"2080 Pembina Highway #903, Winnipeg, MB R3M 2G9, Canada",R3M,R3T
1160046,49.8983465,-97.1070705,"125 Archibald Street, Winnipeg, MB R2J 0Y9, Canada",R2J,R2H
1160622,49.8860122,-97.2711156,"Courts Of St. James, #233, Winnipeg, MB R3V 1A2, Canada",R3V,R3J
1161137,49.873456,-97.1814664,"378 Academy Road, Winnipeg, MB R3M 0G1, Canada",R3M,R3N
1161257,49.8228315,-97.1763482,"1840 Chevrier Boulevard, Winnipeg, MB R3H 0N1, Canada",R3H,R3T
1161929,49.8518619,-97.1133542,"6 Fermor Avenue, Winnipeg, MB R2V 4R9, Canada",R2V,R2M
1162225,49.9082741,-97.2084663,"1000 King Edward Street, Winnipeg, MB R3M 0K5, Canada",R3M,R3H
1162559,49.8569098,-97.1148445,"32 Elm Park Road, Winnipeg, MB R3M 0R9, Canada",R3M,R2M
1162587,49.857753,-97.132552,"500 McNaughton Avenue, Winnipeg, MB R2L 1L8, Canada",R2L,R3L
1162592,49.9106737,-97.1548436,"530Higgins Ave, Winnipeg, MB R3B 0A8, Canada",R3B,R3E
1162718,49.8827969,-97.1165365,"261 Goulet Street, Winnipeg, MB R3R 0E5, Canada",R3R,R2H
1162766,49.8993567,-97.1519156,"493 Notre Dame Avenue, Winnipeg, MB R3M 0K5, Canada",R3M,R3A
1163048,49.8983465,-97.1070705,"125 Archibald Street, Winnipeg, MB R2J 0Y9, Canada",R2J,R2H
1163469,49.8306559,-97.140959,"303 River Drive, Winnipeg, MB R3L 0H0, Canada",R3L,R2M
1163841,49.8893239,-97.1385711,"114 Garry Street, Winnipeg, MB R3H 0N1, Canada",R3H,R3C
1164027,49.8746729,-97.2578298,"2510 Portage Avenue, Winnipeg, MB R3R 0E5, Canada",R3R,R3J
1164061,49.9618732,-97.1614454,"400 Pipeline Road, Winnipeg, MB R3R 0C6, Canada",R3R,R2P
1164533,49.8252133,-99.9642089,"1570 18th Street, Brandon, MB R7A 5Y5, Canada",R7A,R7B
1165632,49.8160847,-97.1507719,"2080 Pembina Highway 615-1100-1207 Of, Winnipeg, MB R3M 2G9, Canada",R3M,R3T
1165827,49.9059468,-97.2042168,"1540 Saskatchewan Avenue, Winnipeg, MB R3M 0K5, Canada",R3M,R3H
1166218,49.9552817,-97.1488958,"2300 McPhillips Street, Winnipeg, MB R2V 3M3, Canada",R2V,R2P
1167486,50.2294446,-98.949625,"106 Bay Street, Gladstone, MB R3N 0S5, Canada",R3N,R0J
1167581,49.8655406,-97.1803725,"1350 Grosvenor Avenue, Winnipeg, MB R3M 0P2, Canada",R3M,R3N
1167716,49.936624,-97.1375935,"524 Rupertsland Avenue, Winnipeg, MB R1A 2B5, Canada",R1A,R2V
1167865,49.9576499,-97.1061791,"453 Murray Avenue, Winnipeg, MB R3N 0P6, Canada",R3N,R2V
1167906,49.9150652,-97.1088501,"247 Martin Avenue West, Winnipeg, MB R2K 0B7, Canada",R2K,R2L
1168316,49.844577,-99.9678801,"332 22nd Street, Brandon, MB R7B 1R8, Canada",R7B,R7A
1168327,49.7653467,-97.1443045,"Collegiate, St. Norbert, MB R0A 0Y0, Canada",R0A,R3V
1168870,49.8343195,-97.165399,"70 Irene Street, Winnipeg, MB R3M 0X9, Canada",R3M,R3T
1169500,49.221769,-97.2518526,"Lot 3036 Road 15 North, Saint Jean Baptiste, MB R0G 2B0, Canada",R0G,R0A
1170156,49.8882437,-97.1471224,"401 York Avenue, Winnipeg, MB R2J 0A4, Canada",R2J,R3C
1170158,49.8906437,-97.1164849,"271 De La Cathedrale Avenue, Winnipeg, MB R3B 1J1, Canada",R3B,R2H
1170280,49.9473814,-97.1378196,"1010 Sinclair Street, Winnipeg, MB R3V 3H7, Canada",R3V,R2V
1170577,49.8934112,-97.1582983,"485 Sherbrook Street, Winnipeg, MB R3T 2W9, Canada",R3T,R3B
1170793,49.9223609,-97.1949827,"245 Keewatin Street #17, Winnipeg, MB R2R 0Z5, Canada",R2R,R3E
1171080,49.9552817,-97.1488958,"2300 McPhillips Street, Winnipeg, MB R2V 3M3, Canada",R2V,R2P
1171092,49.8746729,-97.2578298,"2510 Portage Avenue, Winnipeg, MB R3R 0E5, Canada",R3R,R3J
1171101,49.8785925,-97.2726993,"2727 Portage Avenue, Winnipeg, MB R3V 1A2, Canada",R3V,R3J
1171142,49.8785925,-97.2726993,"2727 Portage Avenue, Winnipeg, MB R3V 1A2, Canada",R3V,R3J
1171162,49.8769788,-97.2401794,"2187 Portage Avenue, Winnipeg, MB R3R 0E5, Canada",R3R,R3J
1171900,49.8608589,-97.1987459,"555 Lanark Street, Winnipeg, MB R2J 4A8, Canada",R2J,R3N
1172155,49.9241015,-97.0502651,"1455 Molson Street, Winnipeg, MB R2G 3S6, Canada",R2G,R3W
1172517,49.867631,-97.1839743,"378 Waterloo Street, Winnipeg, MB R3N 0S6, Canada",R3N ,R3N
1172674,49.8717772,-97.1142707,"350 St.Mary'S, Winnipeg, MB R3R 0E5, Canada",R3R,R2H
1172693,49.8790355,-97.1602666,"99 Cornish Avenue, Winnipeg, MB R3C 1A2, Canada",R3C,R3G
1173160,49.8251111,-97.1045244,"186 Hazelwood Crescent, Winnipeg, MB R3E 2S4, Canada",R3E,R2M
1173539,50.172244,-96.238346,"Correction Facility, Milner Ridge, MB R3C 7H7, Canada",R3C,R0E
1173560,49.8716754,-97.4358431,"6030 Portage Avenue, Headingley, MB R2H 1E8, Canada",R2H,R4H
1173749,49.8959366,-97.0852624,"Betel Home, Selkirk, MB R2J 0A4, Canada",R2J,R2L
1178911,49.8807708,-97.1659314,"121 Canora Street, Winnipeg, MB R3H 0N1, Canada",R3H,R3G
1179556,49.7920701,-97.1581261,"2765 Pembina Highway, Winnipeg, MB R3E 2V7, Canada",R3E,R3T
1181520,49.9534234,-98.5137701,"63095 Road 46 West, Edwin, MB R0H 0G0, Canada",R0H,R1N
1183652,49.8166692,-99.6475104,"Shilo Road Building L-102, Shilo, MB R0K 2A0, Canada",R0K,R7A
1185629,49.8842733,-97.1836132,"1181 Portage Avenue, Winnipeg, MB R1A 2B5, Canada",R1A,R3G
1188644,49.8895539,-97.1439235,"401 York Avenue, Winnipeg, MB R3B 0P4, Canada",R3B,R3C
1189159,49.943816,-97.1043039,"2015 Main Street, Winnipeg, MB R2V 2B9, Canada",R2V,R2G
1189578,49.8900047,-97.1437883,"350St Mary, Winnipeg, MB R3R 0E5, Canada",R3R,R3C
1190349,49.89567,-97.21845,"900 Ferry Road, Winnipeg, MB R3H 0Y8, Canada",R3H,R3J
1190369,49.8746729,-97.2578298,"2510 Portage Avenue, Winnipeg, MB R3R 0E5, Canada",R3R,R3J
1190375,49.8746729,-97.2578298,"2510 Portage Avenue, Winnipeg, MB R3R 0E5, Canada",R3R,R3J
1192586,49.8809995,-97.2810582,"3033 Portage Avenue, Winnipeg, MB R3K 2E3, Canada",R3K,R2Y
1193431,49.8759612,-97.1802997,"1000 Wellington Crescent, Winnipeg, MB R3M 0C9, Canada",R3M,R3N
1194230,49.9040462,-97.1385137,"288 Princess Street, Winnipeg, MB R3B 1M3, Canada",R3B,R3A
1194365,49.9066431,-97.0524724,"1375 Ravelston Avenue West, Winnipeg, MB R3R 0C6, Canada",R3R,R3W
1194385,49.9010692,-97.0651665,"66 Stapon Road, Winnipeg, MB R3C 3M2, Canada",R3C,R3W
1194998,49.8744445,-97.1622824,"12 Kingsway, Winnipeg, MB R3C 0L8, Canada",R3C,R3M
1195439,49.8785925,-97.2726993,"2727 Portage Avenue, Winnipeg, MB R3V 1A2, Canada",R3V,R3J
1195506,49.8861801,-97.144966,"396 Broadway, Winnipeg, MB R3E 2V7, Canada",R3E,R3C
1196433,49.9241015,-97.0502651,"1455 Molson Street, Winnipeg, MB R2G 3S6, Canada",R2G,R3W
1196568,49.8746729,-97.2578298,"2510 Portage Avenue, Winnipeg, MB R3R 0E5, Canada",R3R,R3J
1196572,49.8166692,-99.6475104,"Shilo Road Building L-102, Shilo, MB R0K 2A0, Canada",R0K,R7A
1197012,49.8337573,-97.1011389,"140 Sterling Avenue, Winnipeg, MB R2L 1C2, Canada",R2L,R2M
1197914,49.8785925,-97.2726993,"2727 Portage Avenue, Winnipeg, MB R3V 1A2, Canada",R3V,R3J
1198175,49.8612439,-97.1081016,"93 Saint Anne's Road, Winnipeg, MB R3E 2S4, Canada",R3E,R2M
1198230,49.917381,-97.1575955,"790 Stella Avenue, Winnipeg, MB R2L 1C2, Canada",R2L,R2W
1198247,49.8875373,-97.1424216,"333 Broadway, Winnipeg, MB R3M 0K5, Canada",R3M,R3C
1201006,49.8961207,-97.2693504,"99 Murray Park Road, Winnipeg, MB R2J 3W2, Canada",R2J,R3J
1201829,49.859952,-97.0996776,"10 Des Meurons Street, Winnipeg, MB R3B 1J1, Canada",R3B,R2M
1202319,49.8957007,-97.1665249,"546 Simcoe Street, Winnipeg, MB R2C 1L2, Canada",R2C,R3G
1202521,49.8093942,-97.1344793,"66 Chancellors Circle, Winnipeg, MB R5G 0E6, Canada",R5G,R3T
1202950,49.8670336,-97.2119845,"2025 Corydon Avenue, Winnipeg, MB R1A 1A1, Canada",R1A,R3P
1203395,49.8809065,-97.1502857,"1 Evergreen Place, Winnipeg, MB R3M 0K5, Canada",R3M,R3L
1203397,49.9549941,-97.1778771,"444 Adsum Drive, Winnipeg, MB R3C 2K5, Canada",R3C,R2P
1204304,49.899663,-97.0102222,"328 Whittier Avenue West, Winnipeg, MB R3B 1J1, Canada",R3B,R2C
1204550,52.1063497,-101.2631488,"Highways Maintance Yardr, Swan River, MB R7N 3B3, Canada",R7N,R0L
1205019,49.8911112,-97.1160466,"585 Saint Jean Baptiste Street, Winnipeg, MB R0A 1R1, Canada",R0A,R2H
1205082,49.8785925,-97.2726993,"2727 Portage Avenue, Winnipeg, MB R3V 1A2, Canada",R3V,R3J
1205640,49.8842733,-97.1836132,"1181 Portage Avenue, Winnipeg, MB R1A 2B5, Canada",R1A,R3G
1205738,49.89567,-97.21845,"900 Ferry Road, Winnipeg, MB R3H 0Y8, Canada",R3H,R3J
1205760,49.9156286,-97.1297297,"165 Aberdeen Avenue, Winnipeg, MB R3M 3S1, Canada",R3M,R2W
1205894,49.8767895,-97.1813874,"1034 Wellington Crescent, Winnipeg, MB R3M 0E1, Canada",R3M,R3N
1206022,49.8964401,-97.2099958,"660 Berry Street, Winnipeg, MB R3C 2S4, Canada",R3C,R3H
1206025,49.9183004,-97.2119707,"2055 Notre Dame Avenue C512, Winnipeg, MB R3H 0J9, Canada",R3H,R2R
1206502,49.9755416,-97.1673216,"1125 Mollard Road, Winnipeg, MB R2P 2T6, Canada",R2P,R4A
1206607,49.8836661,-97.1723774,"223 Ruby Street, Winnipeg, MB R3W 1A6, Canada",R3W,R3G
1206867,49.4399663,-96.9854452,"494 Rue Sabourin, Saint Pierre-Jolys, MB R1A 1A1, Canada",R1A,R0A
1207998,49.8959366,-97.0852624,"Betel Home, Selkirk, MB R2J 0A4, Canada",R2J,R2L
1208168,49.9006916,-97.1503429,"87 Isabel Street, Winnipeg, MB R1N 3V3, Canada",R1N,R3A
1208353,49.8826507,-97.1693728,"173 Arlington Street, Winnipeg, MB R3H 0N1, Canada",R3H,R3G
1208472,49.9159211,-97.1501768,"114 McGregor Street 614  710, Winnipeg, MB R2V 2J2, Canada",R2V,R2W
1208565,53.183982,-99.2675215,"Power House, Grand Rapids, MB R3M 3T1, Canada",R3M,R0C
1208600,49.8785925,-97.2726993,"2727 Portage Avenue, Winnipeg, MB R3V 1A2, Canada",R3V,R3J
1209117,49.7931007,-97.1555859,"936 Greencrest Avenue, Winnipeg, MB R2K 0L7, Canada",R2K,R3T
1209192,49.8961761,-97.0219647,"701 Regent Avenue West #106, Winnipeg, MB R3H 0T1, Canada",R3H,R2C
1209335,49.8790557,-97.2723686,"200 Ronald Street #1118, Winnipeg, MB R3V 1A2, Canada",R3V,R3J
1209534,49.9114334,-97.0978892,"511 Martin Avenue West, Winnipeg, MB R3L 0C2, Canada",R3L,R2L
1209852,49.8798126,-97.2720417,"234 Ronald Street #107, Winnipeg, MB R3V 1A2, Canada",R3V,R3J
1209939,49.8785925,-97.2726993,"2727 Portage Avenue, Winnipeg, MB R3V 1A2, Canada",R3V,R3J
1210105,49.8848069,-97.141922,"24 Carlton Street, Winnipeg, MB R3B 2M2, Canada",R3B,R3C
1210230,49.8243111,-97.1549545,"1789 Pembina Highway #154, Winnipeg, MB R3L 0H4, Canada",R3L,R3T
1210232,49.8306559,-97.140959,"595 River Drive #902, Winnipeg, MB R3L 0H3, Canada",R3L,R2M
1210404,49.8790557,-97.2723686,"200 Ronald Street, Winnipeg, MB R3V 1A2, Canada",R3V,R3J
1210994,49.8403969,-99.9538973,"603 12 Street #1140B, Brandon, MB R7B 0S3, Canada",R7B,R7A
1211082,49.9183004,-97.2119707,"2055 Notre Dame Avenue, Winnipeg, MB R3H 0J9, Canada",R3H,R2R
1211129,49.8581852,-97.1584848,"815 Ebby Avenue, Winnipeg, MB R2X 1G4, Canada",R2X,R3M
1213620,49.8669135,-97.1895158,"86 Cordova Street, Winnipeg, MB R3H 0N1, Canada",R3H,R3N
1214244,49.8486473,-99.9302455,"611 Rosser Avenue East, Brandon, MB R3W 1A6, Canada",R3W,R7A
1214477,49.8974192,-97.2835394,"92 Quail Ridge Road, Winnipeg, MB R2G 0R1, Canada",R2G,R2Y
1215144,49.8875373,-97.1424216,"333 Broadway, Winnipeg, MB R3M 0K5, Canada",R3M,R3C
1215813,49.9506685,-97.1499413,"180 Market, Winnipeg, MB R3B 0P7, Canada",R3B,R2V
1215960,49.5580017,-99.2891025,"6 14 W Sw 23, Glenboro, MB R0J 0X0, Canada",R0J,R0K
1216066,49.884769,-97.1405648,"375 Assiniboine Avenue, Winnipeg, MB R3B 2M2, Canada",R3B,R3C
1216303,49.9048127,-97.1618157,"780 Bannatyne Avenue, Winnipeg, MB R2M 0C7, Canada",R2M,R3E
1216305,49.9048127,-97.1618157,"780 Bannatyne Avenue, Winnipeg, MB R2M 0C7, Canada",R2M,R3E
1217758,54.8693209,-100.0191958,"247 Copper Road, Snow Lake, MB R3C 5T7, Canada",R3C,R0B
1217761,49.8882365,-97.1215683,"185 Rue Despins, Winnipeg, MB R2K 4J4, Canada",R2K,R2H
1219391,49.8785925,-97.2726993,"2727 Portage Avenue, Winnipeg, MB R3V 1A2, Canada",R3V,R3J
1219427,49.8790557,-97.2723686,"200 Ronald Street #1506, Winnipeg, MB R3V 1A2, Canada",R3V,R3J
1219431,49.8790557,-97.2723686,"200 Ronald Street #404, Winnipeg, MB R3V 1A2, Canada",R3V,R3J
1219442,49.8798126,-97.2720417,"234 Ronald Street #1501, Winnipeg, MB R3V 1A2, Canada",R3V,R3J
1219444,49.8795359,-97.2731273,"233 Booth Drive #1205, Winnipeg, MB R3V 1A2, Canada",R3V,R3J
1219449,49.8795359,-97.2731272,"233 Booth Drive #509, Winnipeg, MB R3V 1A2, Canada",R3V,R3J
1219903,49.8642225,-97.1051855,"89 Stranmillis Avenue, Winnipeg, MB R3M 3S7, Canada",R3M,R2M
1220384,49.9044652,-97.160699,"750 Bannatyne Avenue, Winnipeg, MB R2M 0C7, Canada",R2M,R3E
1220549,49.8888422,-97.1486381,"200 Vaughan Street, Winnipeg, MB R0E 1J0, Canada",R0E,R3C
1221040,49.8819326,-97.0720999,"#20-969, Winnipeg, MB R2K 4A1, Canada",R2K,R2J
1221405,49.8790557,-97.2723686,"200 Ronald Street #814, Winnipeg, MB R3V 1A2, Canada",R3V,R3J
1221414,49.8495532,-97.0988449,"355 Saint Anne's Road #15, Winnipeg, MB R3B 2A7, Canada",R3B,R2M
1221923,49.9038327,-97.1610497,"753 McDermot Avenue, Winnipeg, MB R2M 0C7, Canada",R2M,R3E
1221952,49.8678409,-97.1366073,"60 Osborne Street, Winnipeg, MB R3H 0H1, Canada",R3H,R3L
1222572,49.8754702,-97.1804705,"100 Oak Street, Winnipeg, MB R3M 3R3, Canada",R3M,R3N
1222604,49.8707511,-97.0741811,"1018 Elizabeth Road, Winnipeg, MB R2R 1A1, Canada",R2R,R2J
1223105,49.8889267,-97.0569583,"54 Terracon Place, Winnipeg, MB R2G 4G7, Canada",R2G,R2J
1223240,49.8740178,-97.1519586,"245 Wellington Crescent, Winnipeg, MB R3R 0E5, Canada",R3R,R3M
1223259,49.8888932,-97.1434873,"155 Carlton Street, Winnipeg, MB R3M 2Y8, Canada",R3M,R3C
1223276,49.8766369,-97.2567469,"222 Olive Street, Winnipeg, MB R3E 2S4, Canada",R3E,R3J
1223729,49.8954221,-97.1385145,"9 Service Road 1Sw, Winnipeg, MB R3T 2N2, Canada",R3T,R3B
1224075,49.8795359,-97.2731272,"233 Booth Drive P1, Winnipeg, MB R3V 1A2, Canada",R3V,R3J
1224077,49.8785925,-97.2726993,"2727 Portage Avenue, Winnipeg, MB R3V 1A2, Canada",R3V,R3J
1224194,49.8780523,-97.1523334,"595 River Avenue Unit 509 And Unit 209, Winnipeg, MB R3E 2S4, Canada",R3E,R3L
1224794,49.8090968,-97.1347872,"University Centre, 61 Chancellors Circle Room 204, Winnipeg, MB R3E 1B4, Canada",R3E,R3T
1225768,49.8112535,-97.133417,"186 Dysart Road, Winnipeg, MB R3Y 6B3, Canada",R3Y,R3T
1225843,50.1557041,-96.8762278,"605 Mercy Street, Clandeboye, MB R0C 0P0, Canada",R0C,R1A
1226063,49.9398042,-97.1795114,"1501 Church Avenue, Winnipeg, MB R3X 1G7, Canada",R3X,R2X
1226239,49.8795359,-97.2731272,"233 Booth Drive Ph5, Winnipeg, MB R3V 1A2, Canada",R3V,R3J
1226287,49.9087825,-97.1523665,"1018 Sherbrook Street, Winnipeg, MB R3A 1N8, Canada",R3A,R3E
1226628,49.8849016,-97.1251341,"409 Tache Avenue, Winnipeg, MB R3B 0G5, Canada",R3B,R2H
1226656,50.1408431,-96.8782626,"366 Main Street, Selkirk, MB R3C 0L5, Canada",R3C,R1A
1227106,49.8827969,-97.1165365,"261 Goulet Street B644, Winnipeg, MB R3A 1S7, Canada",R3A,R2H
1227202,49.8574266,-97.2098224,"Kapyong Avenue Barracks, Winnipeg, MB R3M 0G9, Canada",R3M,R3N
1227206,49.9020972,-97.1452353,"425 Elgin Avenue, Winnipeg, MB R3M 0K5, Canada",R3M,R3A
1227246,49.8983259,-97.1419071,"103 Princess Street, Winnipeg, MB R4A 1C4, Canada",R4A,R3B
1227742,49.8843491,-97.0011452,"124 Borden Avenue, Winnipeg, MB R3H 0N1, Canada",R3H,R2C
1227743,49.8979707,-97.2228983,"Hanger Road #11, Winnipeg, MB R3H 0N1, Canada",R3H,R3J
1229337,49.9552817,-97.1488958,"2300 McPhillips Street, Winnipeg, MB R2V 3M3, Canada",R2V,R2P
1229347,49.8889818,-97.1473254,"444 Saint Mary Avenue, Winnipeg, MB R3G 9K7, Canada",R3G,R3C
1230151,49.8252133,-99.9642089,"1570 18th Street, Brandon, MB R7A 5C5, Canada",R7A,R7B
1230498,53.7001751,-100.3516253,"Moose Lake Daycare, Moose Lake, MB R3M 0K5, Canada",R3M,R0B
1230542,49.8694352,-97.2289025,"15 Conservatory Drive, Winnipeg, MB R3P 2N5, Canada",R3P,R3N
1231784,49.8785925,-97.2726993,"2727 Portage Avenue, Winnipeg, MB R3V 1A2, Canada",R3V,R3J
1231807,49.8795359,-97.2731272,"233 Booth Drive #111, Winnipeg, MB R3V 1A2, Canada",R3V,R3J
1231814,49.880265,-97.271524,"200 Ronald Street #819, Winnipeg, MB R3R 0E5, Canada",R3R,R3J
1231820,49.9044652,-97.160699,"750 Bannatyne Avenue, Winnipeg, MB R3T 2N2, Canada",R3T,R3E
1232185,49.8870532,-97.1015885,"St Johns College, 201 St Pauls College #225, Winnipeg, MB R2J 0X5, Canada",R2J,R2H
1232430,56.3493858,-94.7056244,"235 Mattanobee, Gillam, MB R2J 0H3, Canada",R2J,R0B
1233152,49.8790557,-97.2723686,"200 Ronald Street #1511, Winnipeg, MB R3V 1A2, Canada",R3V,R3J
1233153,49.8795359,-97.2731272,"233 Booth Drive #1404, Winnipeg, MB R3V 1A2, Canada",R3V,R3J
1233165,49.8746729,-97.2578298,"2510 Portage Avenue #712, Winnipeg, MB R3R 0E5, Canada",R3R,R3J
1233425,49.8954221,-97.1385145,"1013 Clarence, Winnipeg, MB R4T 1S3, Canada",R3T,R3B
1234234,49.8954221,-97.1385145,"105 Birch Ave, Winnipeg, MB R0L 2G0, Canada",R0L,R3B
1234495,49.9228555,-97.1201161,"88 Bannerman Avenue, Winnipeg, MB R1A 1A1, Canada",R1A,R2W
1234656,49.8790557,-97.2723686,"200 Ronald Street #1111, Winnipeg, MB R3V 1A2, Canada",R3V,R3J
1235177,50.1541756,-96.8930177,"77145 St Peters, Selkirk, MB R0E 0M0, Canada",R0E,R1A
1235180,49.8847196,-97.1412015,"15 Carlton Street #608, Winnipeg, MB R3R 0E5, Canada",R3R,R3C
1235187,49.8847196,-97.1412015,"15 Carlton Street #1003, Winnipeg, MB R3R 0E5, Canada",R3R,R3C
1235278,49.8773706,-97.2277187,"6 Deer Lodge Place, Winnipeg, MB R3C 2B9, Canada",R3C,R3J
1235557,49.8830721,-97.2945336,"625 Parkdale Street, Winnipeg, MB R3J 1S8, Canada",R3J,R2Y
1235560,56.040168,-96.539777,"Kelsey Generating Station, Kelsey, MB R1R 1R1, Canada",R1R,R0B
1236784,49.9286244,-97.1153793,"62 Smithfield Avenue, Winnipeg, MB R2V 0B8, Canada",R2V,R2W
1236937,49.8888422,-97.1486381,"200 Vaughan Street, Winnipeg, MB R0E 1J0, Canada",R0E,R3C
1237064,49.9183004,-97.2119707,"2055 Notre Dame Avenue, Winnipeg, MB R3H 0J9, Canada",R3H,R2R
1237066,49.9183004,-97.2119707,"2055 Notre Dame Avenue, Winnipeg, MB R3H 0J9, Canada",R3H,R2R
1237201,49.8790557,-97.2723686,"200 Ronald Street #1217, Winnipeg, MB R3V 1A2, Canada",R3V,R3J
1237213,49.8790557,-97.2723686,"200 Ronald Street #821, Winnipeg, MB R3V 1A2, Canada",R3V,R3J
1237220,49.8795359,-97.2731272,"233 Booth Drive #11001, Winnipeg, MB R3V 1A2, Canada",R3V,R3J
1237227,49.8795359,-97.2731272,"233 Booth Drive #1002, Winnipeg, MB R3V 1A2, Canada",R3V,R3J
1237267,49.8746729,-97.2578298,"2510 Portage Avenue, Winnipeg, MB R3R 0E5, Canada",R3R,R3J
1237386,49.8578739,-97.2851702,"5014 Roblin Boulevard, Winnipeg, MB R3H 0N1, Canada",R3H,R3R
1237661,49.9552817,-97.1488958,"2300 McPhillips Street, Winnipeg, MB R2V 3M3, Canada",R2V,R2P
1237770,49.9552817,-97.1488958,"2300 McPhillips Street, Winnipeg, MB R2V 3M3, Canada",R2V,R2P
1237804,49.9459475,-97.0470584,"1717 Gateway Road, Winnipeg, MB R3B 1J1, Canada",R3B,R2G
1238093,49.8957956,-97.1090303,"449 Provencher Boulevard, Winnipeg, MB R2J 0B5, Canada",R2J,R2H
1238293,49.9044652,-97.160699,"750 Bannatyne Avenue, Winnipeg, MB R2M 0C7, Canada",R2M,R3E
1238441,49.8746729,-97.2578298,"2510 Portage Avenue #319, Winnipeg, MB R3R 0E5, Canada",R3R,R3J
1238451,49.8510898,-97.2130736,"123 Swindon Way #209, Winnipeg, MB R3E 0G3, Canada",R3E,R3P
1238452,49.8952633,-97.3114075,"170 Lumsden Avenue #43, Winnipeg, MB R2X 1G4, Canada",R2X,R2Y
1238709,49.8187793,-97.1209614,"200 Minnetonka Street, Winnipeg, MB R3M 3Y6, Canada",R3M,R2M
1238859,49.8847646,-97.2804081,"700 Setter Street, Winnipeg, MB R3R 0E5, Canada",R3R,R2Y
1239261,49.8837662,-97.2748378,"333 Booth Drive, Winnipeg, MB R3H 0N1, Canada",R3H,R3J
1240050,49.83167,-99.962388,"1148 18th Street, Brandon, MB R7A 5C2, Canada",R7A,R7B
1240074,49.9183004,-97.2119707,"2055 Notre Dame Avenue, Winnipeg, MB R3H 0J9, Canada",R3H,R2R
1240534,49.8746729,-97.2578298,"2510 Portage Avenue #515, Winnipeg, MB R3R 0E5, Canada",R3R,R3J
1240567,49.8795581,-97.1403825,"333 Stradbrook Avenue #208, Winnipeg, MB R3P 2H8, Canada",R3P,R3L
1240645,49.9516061,-97.1470658,"2311 McPhillips Street, Winnipeg, MB R3V 3E1, Canada",R3V,R2V
1240769,49.8790557,-97.2723686,"200 Ronald Street #305, Winnipeg, MB R3V 1A2, Canada",R3V,R3J
1240808,50.2223909,-95.5687635,"Generating Station, Slave Falls, MB R1A 1A1, Canada",R1A,R0E
1240825,49.8743,-97.3203069,"331 Saint Charles Street, Winnipeg, MB R3G 2V4, Canada",R3G,R3K
1240866,49.8790557,-97.2723686,"200 Ronald Street #606, Winnipeg, MB R3V 1A2, Canada",R3V,R3J
1240868,49.8798126,-97.2720417,"234 Ronald Street #903, Winnipeg, MB R3V 1A2, Canada",R3V,R3J
1240869,49.8795359,-97.2731272,"233 Booth Drive #1110, Winnipeg, MB R3V 1A2, Canada",R3V,R3J
1240870,49.8790557,-97.2723686,"200 Ronald Street #920, Winnipeg, MB R3V 1A2, Canada",R3V,R3J
1241079,49.8954221,-97.1385145,"#841, Moncton, MB R2J 1M4, Canada",R2J,R3B
1241139,49.904689,-97.116911,"525 Angus Street, Winnipeg, MB R3G 1N7, Canada",R3G,R2W
1241724,49.8849016,-97.1251341,"409 Tache Avenue, Winnipeg, MB R2W 2A6, Canada",R2W,R2H
1241774,49.8179832,-97.1151398,"1680 Saint Mary's Road, Winnipeg, MB R3H 0N1, Canada",R3H,R2N
1242542,49.9044652,-97.160699,"750 Bannatyne Avenue, Winnipeg, MB R2M 0C7, Canada",R2M,R3E
1242804,49.8847646,-97.2804081,"700 Setter Street #411, Winnipeg, MB R3R 0E5, Canada",R3R,R2Y
1243461,49.865473,-97.1814989,"1370 Grosvenor Avenue, Winnipeg, MB R3M 0P2, Canada",R3M,R3N
1243879,49.8743588,-97.1776973,"132 Montrose Street, Winnipeg, MB R3M 3L8, Canada",R3M,R3N
1244417,49.904877,-97.1589214,"700 William Avenue, Winnipeg, MB R3A 1R9, Canada",R3A,R3E
1244641,49.8448452,-97.1335594,"596 South Drive, Winnipeg, MB R4A 0B1, Canada",R4A,R3T
1244980,49.8746729,-97.2578298,"2510 Portage Avenue #203, Winnipeg, MB R3R 0E5, Canada",R3R,R3J
1245403,49.108467,-97.5501433,"181 6 Street Northeast, Altona, MB R6W 1J4, Canada",R6W,R0G
1245628,49.865473,-97.1814989,"1370 Grosvenor Avenue, Winnipeg, MB R3M 0P2, Canada",R3M,R3N
1245798,49.8790557,-97.2723686,"200 Ronald Street #1017, Winnipeg, MB R3V 1A2, Canada",R3V,R3J
1245803,49.8795359,-97.2731272,"233 Booth Drive Ph13, Winnipeg, MB R3V 1A2, Canada",R3V,R3J
1245806,49.8798126,-97.2720417,"234 Ronald Street #901, Winnipeg, MB R3V 1A2, Canada",R3V,R3J
1245845,49.9864782,-98.2715316,"Food Developement Centre, 810 Philips Street, Portage la Prairie, MB R3M 0K8, Canada",R3M,R1N
1245894,49.9174671,-97.1137936,"352 Henderson Highway, Winnipeg, MB R2L 1M8, Canada",R2L,R2K
1246478,49.8247016,-97.1801733,"1455 Waverley Street Unit 1A, Winnipeg, MB R3T 5Y6, Canada",R3T,R3Y
1246830,56.3493858,-94.7056244,"Gillam, MB R1A 1A1, Canada",R1A,R0B
1246832,49.8719367,-97.6413486,"73 Dacotah Road, Dacotah, MB R0H 0H0, Canada",R0H,R4K
1247231,49.9044652,-97.160699,"750 Bannatyne Avenue, Winnipeg, MB R3T 2N2, Canada",R3T,R3E
1247278,56.4704971,-100.0076549,"Leaf Rapids, Complex R3B 3M3, Canada",R3B,R0B
1247567,49.9552817,-97.1488958,"2300 McPhillips Street, Winnipeg, MB R2V 3M3, Canada",R2V,R2P
1247572,49.8247016,-97.1801733,"1455 Waverley Street Unit 6, Winnipeg, MB R3T 5Y6, Canada",R3T,R3Y
1247661,49.9552817,-97.1488958,"2300 McPhillips Street, Winnipeg, MB R2V 3M3, Canada",R2V,R2P
1247759,49.8790355,-97.1602666,"99 Cornish Avenue, Winnipeg, MB R3C 1A2, Canada",R3C,R3G
1248051,49.9223609,-97.1949827,"245 Keewatin Street #20, Winnipeg, MB R2R 0Z5, Canada",R2R,R3E
1248288,49.8958119,-97.135489,"One Lombard Avenue, Winnipeg, MB R2J 4A8, Canada",R2J,R3B
1248346,49.8334101,-97.1153015,"11 Saint Michael Road #902, Winnipeg, MB R3R 0E5, Canada",R3R,R2M
1248349,49.8498643,-97.096422,"61 Clayton Drive #18, Winnipeg, MB R3G 3J4, Canada",R3G,R2M
1248462,49.8274516,-97.1636258,"1330 Chevrier Boulevard, Winnipeg, MB R3L 0C3, Canada",R3L,R3T
1248636,49.8825102,-97.2148562,"400 Parkview Street, Winnipeg, MB R2J 1S6, Canada",R2J,R3J
1248737,49.8626234,-97.2064841,"377 Kenaston Boulevard 323, 327, 207, 211, 219, 223, 227, 235, 299, 311, 344, 348, 352, 356, 361, 373, Winnipeg, MB R3W 0C3, Canada",R3W,R3N
1248775,49.78425,-97.1524298,"141 Baylor Avenue, Winnipeg, MB R3G 2K8, Canada",R3G,R3T
1249510,49.8801107,-97.1744052,"88 Lipton Street, Winnipeg, MB R2J 4A8, Canada",R2J,R3G
1249690,49.8465168,-99.9642918,"205 20th Street, Brandon, MB R7B 1L6, Canada",R7B,R7A
1249919,49.8853736,-97.2602886,"479 Ainslie Street #17, Winnipeg, MB R3G 3J4, Canada",R3G,R3J
1250140,49.8664367,-97.2092835,"1975 Corydon Avenue #19B, Winnipeg, MB R3T 0R1, Canada",R3T,R3P
1250224,49.8790557,-97.2723686,"200 Ronald Street #17, Winnipeg, MB R3V 1A2, Canada",R3V,R3J
1250225,49.8790557,-97.2723686,"200 Ronald Street #1616, Winnipeg, MB R3V 1A2, Canada",R3V,R3J
1250226,49.8790557,-97.2723686,"200 Ronald Street #605, Winnipeg, MB R3V 1A2, Canada",R3V,R3J
1250227,49.8798126,-97.2720417,"234 Ronald Street #506, Winnipeg, MB R3V 1A2, Canada",R3V,R3J
1250285,49.9552817,-97.1488958,"2300 McPhillips Street, Winnipeg, MB R3H 0N1, Canada",R3H,R2P
1250445,49.849851,-97.097923,"35 Bonita Avenue, Winnipeg, MB R2V 4Y2, Canada",R2V,R2M
1250516,49.9083489,-97.198276,"1435 Saint James Street, Winnipeg, MB R3H 0W9, Canada",R3H,R3E
1250631,49.8781936,-97.3031658,"66 Allard Avenue, Winnipeg, MB R3B 1J1, Canada",R3B,R3K
1250929,49.8160847,-97.1507719,"2080 Pembina Highway #801, Winnipeg, MB R3M 2G9, Canada",R3M,R3T
1251039,49.8320235,-99.9595802,"1175 18th Street, Brandon, MB R7A 7C5, Canada",R7A,R7B
1251051,49.8676071,-97.2068639,"244 Ubique Crescent, Winnipeg, MB R1R 0R0, Canada",R1R,R3N
1251053,49.8693796,-97.2065715,"72 Tuxedo Avenue, Winnipeg, MB R1R 0R0, Canada",R1R,R3N
1251055,49.864218,-97.2110366,"384 Maurepas Crescent, Winnipeg, MB R1R 0R0, Canada",R1R,R3N
1251057,49.8862595,-97.2405661,"444 Conway Street, Winnipeg, MB R1R 0R0, Canada",R1R,R3J
1251058,49.8856361,-97.2394059,"423 Conway Street, Winnipeg, MB R1R 0R0, Canada",R1R,R3J
1251465,49.8922809,-97.30404,"838 Hamilton Avenue A203, Winnipeg, MB R3R 0E5, Canada",R3R,R2Y
1251471,49.8954221,-97.1385145,"838 Hamilton A306, Winnipeg, MB R3R 0E5, Canada",R3R,R3B
1251475,49.8922809,-97.30404,"838 Hamilton Avenue C207, Winnipeg, MB R3R 0E5, Canada",R3R,R2Y
1251483,49.8853736,-97.2602886,"479 Ainslie Street #22, Winnipeg, MB R3G 3J4, Canada",R3G,R3J
1251503,49.8746729,-97.2578298,"2510 Portage Avenue #417, Winnipeg, MB R3R 0E5, Canada",R3R,R3J
1251506,49.8746729,-97.2578298,"2510 Portage Avenue #305, Winnipeg, MB R3R 0E5, Canada",R3R,R3J
1251586,49.8922809,-97.30404,"838 Hamilton Avenue C119, Winnipeg, MB R3R 0E5, Canada",R3R,R2Y
1251812,49.8954221,-97.1385145,"838 Hamilton D228, Winnipeg, MB R3G 3J4, Canada",R3G,R3B
1251865,49.9167316,-97.203554,"1939 Notre Dame Avenue, Winnipeg, MB R3H 0J7, Canada",R3H,R2R
1252838,49.8851753,-97.1597273,"216 Sherbrook Street, Winnipeg, MB R3C 2B6, Canada",R3C,R3G
1252953,49.9223609,-97.1949827,"245 Keewatin Street #20, Winnipeg, MB R2R 0Z5, Canada",R2R,R3E
1253004,50.2625413,-96.9841797,"Box 94, Site 240, St. Andrews, MB R7A 5Y3, Canada",R7A,R0C
1253279,53.8254947,-101.2427088,"Kettle Generating Station, The Pas, MB R0B 0L0, Canada",R0B,R9A
1254072,50.1541756,-96.8930177,"Birdshill Park, Selkirk, MB R0E 0K0, Canada",R0E,R1A
1254361,49.9552817,-97.1488958,"2300 McPhillips Street, Winnipeg, MB R3H 0N1, Canada",R3H,R2P
1254375,51.1496809,-100.0499383,"25 479 Ainslie, Dauphin, MB R3G 3J4, Canada",R3G,R7N
1254635,49.8954221,-97.1385145,"Td Canada Trust, 424 Main St, Winnipeg, MB R7N 1L1, Canada",R7N,R3B
1254700,49.8954221,-97.1385145,"838 Hamilton A314, Winnipeg, MB R3R 0E5, Canada",R3R,R3B
1254829,49.8851753,-97.1597273,"216 Sherbrook Street, Winnipeg, MB R3C 2B6, Canada",R3C,R3G
1255634,49.9656043,-97.3539292,"101 N Rosser Road #63, Winnipeg, MB R3K 2E2, Canada",R3K,R0H
1255683,49.8746729,-97.2578298,"2510 Portage Avenue #221, Winnipeg, MB R3R 0E5, Canada",R3R,R3J
1255792,50.2284857,-99.4664294,"18 200 Ronald, Neepawa, MB R3R 0E5, Canada",R3R,R0J
1255975,49.8826893,-97.121552,"161 Goulet Street No Frills, Winnipeg, MB R2W 1L3, Canada",R2W,R2H
1256003,49.9070705,-97.1614344,"215 Tecumseh Street, Winnipeg, MB R3B 1J1, Canada",R3B,R3E
1256488,49.6492464,-97.1187798,"1290 Research Station Road, Dauphin, MB R0G 0S0, Canada",R0G,R5A
1256608,49.8954221,-97.1385145,"330 Mountain Road North, Winnipeg, MB R7N 2V6, Canada",R7N,R3B
1256783,49.8957294,-97.2210017,"958 Ferry Road, Winnipeg, MB R3H 0Y8, Canada",R3H,R3J
1256896,49.8954221,-97.1385145,"43 55 - 1380 Raleigh #7, Winnipeg, MB R2J 2V9, Canada",R2J,R3B
1257324,49.8569736,-97.1584069,"630 Guelph Street #208, Winnipeg, MB R3G 3J4, Canada",R3G,R3M
1257595,49.808049,-97.1301582,"Drake Centre, 181 Freedman Crescent Room451, Winnipeg, MB R2W 1L3, Canada",R2W,R3T
1257939,49.6492464,-97.1187798,"1290 Research Station Road, Winnipeg, MB R0G 0S0, Canada",R0G,R5A
1258189,49.9066962,-97.1808712,"1555 Wall Street, Winnipeg, MB R2E 2S2, Canada",R2E,R3E
1258206,49.8790557,-97.2723686,"200 Ronald Street #1013, Winnipeg, MB R3V 1A2, Canada",R3V,R3J
1258302,49.8152947,-97.1505156,"2080 Pembina Highway #712, Winnipeg, MB R3N 2G9, Canada",R3N,R3T
1258582,49.882263,-97.277446,"Grace Hospitial, Booth Drive, Winnipeg, MB R3C 1L8, Canada",R3C,R3J
1258594,49.8954221,-97.1385145,"Various Address, Winnipeg, MB R0K 2A0, Canada",R0K,R3B
1258820,49.9552817,-97.1488958,"2300 McPhillips Street, Winnipeg, MB R2V 3M3, Canada",R2V,R2P
1258823,49.9552817,-97.1488958,"2300 McPhillips Street, Winnipeg, MB R2V 3M3, Canada",R2V,R2P
1258837,49.8776422,-97.1438748,"150 Osborne Street, Winnipeg, MB R3B 1J1, Canada",R3B,R3L
1258907,49.8582521,-97.2383907,"#105-595, Winnipeg, MB R3L 0H4, Canada",R3L,R3P
1258922,49.8983644,-97.2035269,"1725 Sargent Avenue, Winnipeg, MB R3C 3R3, Canada",R3C,R3H
1259524,49.8746729,-97.2578298,"2510 Portage Avenue #122, Winnipeg, MB R3R 0E5, Canada",R3R,R3J
1259619,49.8746729,-97.2578298,"2510 Portage Avenue #120, Winnipeg, MB R3R 0E5, Canada",R3R,R3J
1259892,49.9552817,-97.1488958,"2300 McPhillips Street, Winnipeg, MB R2V 3M3, Canada",R2V,R2P
1259919,49.8582521,-97.2383907,"1099 Grant #105, Winnipeg, MB R3M 1X7, Canada",R3M,R3P
1260091,49.8918785,-97.310133,"124 Kay Crescent, Winnipeg, MB R2C 1S9, Canada",R2C,R2Y
1260169,56.3493858,-94.7056244,"715 233 Booth, Gillam, MB R3R 0E5, Canada",R3R,R0B
1260256,49.8199377,-97.1357861,"317 River Road, Winnipeg, MB R0C 0A0, Canada",R0C,R2M
1260812,49.8954221,-97.1385145,"3305 Victoria Ave E, Winnipeg, MB R7A 7J8, Canada",R7A,R3B
1260990,49.5025602,-98.0016294,"25 Main St, Carman, MB R2W 1L3, Canada",R2W,R0G
1261325,49.8954221,-97.1385145,"Walmart Store, 300 Mystery Lake Road #3102, Winnipeg, MB R8N 0M2, Canada",R8N,R3B
1261412,49.9731127,-98.2924804,"1St Ave And Edward Street, Portage la Prairie, MB R0K 1X0, Canada",R0K,R1N
1261656,49.9552817,-97.1488958,"2300 McPhillips Street, Winnipeg, MB R2V 3M3, Canada",R2V,R2P
1261712,49.8847646,-97.2804081,"700 Setter Street #1003, Winnipeg, MB R3R 0E5, Canada",R3R,R2Y
1261726,49.8746729,-97.2578298,"2510 Portage Avenue #118, Winnipeg, MB R3R 0E5, Canada",R3R,R3J
1261968,49.8847646,-97.2804081,"700 Setter Street #512, Winnipeg, MB R3R 0E5, Canada",R3R,R2Y
1262119,49.8789003,-97.2022305,"7 38 Bonita, Selkirk, MB R3G 3J4, Canada",R3G,R3J
1262631,49.8532804,-97.0875464,"66 Royal Salinger Road, Winnipeg, MB R2X 1G4, Canada",R2X,R2J
1262880,49.8252133,-99.9642089,"1570 18th Street, Brandon, MB R7A 5C5, Canada",R7A,R7B
1262985,49.849082,-97.1171389,"45 Nichol Avenue, Winnipeg, MB R3E 2V7, Canada",R3E,R2M
1263332,49.9048127,-97.1618157,"780 Bannatyne Avenue, Winnipeg, MB R3T 2N2, Canada",R3T,R3E
1263380,49.8160847,-97.1507719,"2080 Pembina Highway, Winnipeg, MB R3M 2G9, Canada",R3M,R3T
1265379,49.922428,-97.0540464,"180 Grassie Boulevard, Winnipeg, MB R3R 0E4, Canada",R3R,R2G
1265384,49.922428,-97.0540464,"180 Grassie Boulevard, Winnipeg, MB R3R 0E4, Canada",R3R,R2G
1265727,49.9552817,-97.1488958,"2300 McPhillips Street, Winnipeg, MB R2V 3M3, Canada",R2V,R2P
1266984,49.8954221,-97.1385145,"Milner Ridge Correctional Centre, Winnipeg, MB R0E 0C0, Canada",R0E,R3B
1267698,55.7451003,-97.8509232,"119 Parkview, Thompson, MB R3J 1S2, Canada",R3J,R8N
1267770,49.5303097,-96.6912051,"300 Mystery Lake Road, Steinbach, MB R8N 0M2, Canada",R8N,R5G
1268024,50.5648358,-96.1971513,"229 Main Street, Powerview-Pine Falls, MB R3C 1A7, Canada",R3C,R0E
1268050,49.8904486,-97.1398543,"185 Smith Street, Winnipeg, MB R2X 0A3, Canada",R2X,R3C
1268085,49.8856803,-97.1492161,"Via Rain- Main St, Broadway, Winnipeg, MB R2J 4G7, Canada",R2J,R3C
1268479,49.8317381,-99.9500502,"9 Citadel Crescent, Brandon, MB R0K 2A0, Canada",R0K,R7A
1268803,49.885081,-97.119777,"255 Dollard Boulevard, Winnipeg, MB R3H 0M9, Canada",R3H,R2H
1269147,49.9552817,-97.1488958,"2300 McPhillips Street Elevator 1, Winnipeg, MB R2V 3M3, Canada",R2V,R2P
1269256,49.8957294,-97.2210017,"958 Ferry Road, Winnipeg, MB R3H 0Y8, Canada",R3H,R3J
1269504,49.8954221,-97.1385145,"300 3Rd St E, Winnipeg, MB R9A 1K7, Canada",R9A,R3B
1269566,53.8254947,-101.2427088,"421 Osborne St, The Pas, MB R3H 0N1, Canada",R3H,R9A
1269581,53.8254947,-101.2427088,"285 Pembina Hwy, The Pas, MB R3L 2E1, Canada",R3L,R9A
1269616,49.8664367,-97.2092835,"1975 Corydon Avenue #4C, Winnipeg, MB R3R 0B6, Canada",R3R,R3P
1270085,49.9274485,-97.1650558,"1055 Aberdeen Avenue, Winnipeg, MB R3X 0W8, Canada",R3X,R2X
1270194,49.8252133,-99.9642089,"1570 18th Street, Winnipeg, MB R7A 5C5, Canada",R7A,R7B
1270551,49.9249505,-97.1571988,"875 Aberdeen Avenue, Winnipeg, MB R3E 3M8, Canada",R3E,R2X
1270683,49.8847196,-97.1412015,"15 Carlton Street #803, Winnipeg, MB R3P 2H8, Canada",R3P,R3C
1272306,49.9552817,-97.1488958,"2300 McPhillips Street Level 5, Winnipeg, MB R2V 3M3, Canada",R2V,R2P
1272404,49.8843084,-97.1247487,"St.Bonaface Hospitial, Tache Avenue, Winnipeg, MB R2J 0X5, Canada",R2J,R2H
1272599,49.9606499,-97.144177,"2546 McPhillips Street, Winnipeg, MB R2V 2T2, Canada",R2V,R2P
1272875,49.8954221,-97.1385145,"155 Pth 5E, Winnipeg, MB R0L 1P0, Canada",R0L,R3B
1273161,49.90464,-97.1598,"745 Bannatyne Avenue, Winnipeg, MB R3T 2N2, Canada",R3T,R3E
1273194,49.9002706,-97.2500143,"24 9th Avenue Southeast, Winnipeg, MB R3N 3V4, Canada",R3N,R3J
1273338,49.9552817,-97.1488958,"2300 McPhillips Street, Winnipeg, MB R2V 3M3, Canada",R2V,R2P
1273409,49.9606499,-97.144177,"2546 McPhillips Street, Winnipeg, MB R2V 2T2, Canada",R2V,R2P
1273496,49.8208771,-97.1820175,"1539 Waverley Street, Winnipeg, MB R3T 4V7, Canada",R3T,R3Y
1273686,49.8846985,-97.2786881,"14 Caron Avenue, Winnipeg, MB R2H 2W7, Canada",R2H,R2Y
1273759,49.8368395,-97.0800917,"27 Beaudry Bay, Winnipeg, MB R0G 0A4, Canada",R0G,R3X
1273797,49.9177759,-97.0972074,"505 Munroe Avenue, Winnipeg, MB R3H 0N1, Canada",R3H,R2K
1273916,49.9552817,-97.1488958,"2300 McPhillips Street, Winnipeg, MB R3H 0N1, Canada",R3H,R2P
1273976,49.9552817,-97.1488958,"2300 McPhillips Street, Winnipeg, MB R3E 0M1, Canada",R3E,R2P
1274126,49.9544024,-97.1474722,"Seven Oak Hospital At Woman Washroom, Winnipeg, MB R2V 3M3, Canada",R2V,R2P
1274347,49.9552817,-97.1488958,"2300 McPhillips Street, Winnipeg, MB R2V 3M3, Canada",R2V,R2P
1274348,49.9552817,-97.1488958,"2300 McPhillips Street, Winnipeg, MB R2V 3M3, Canada",R2V,R2P
1274375,49.8954221,-97.1385145,"9 2Nd Street Nw, Winnipeg, MB R7N 1G6, Canada",R7N,R3B
1274475,49.8954221,-97.1385145,"28 Inlet Arm, Winnipeg, MB R8A 0A0, Canada",R8A,R3B
1274498,53.7608608,-98.8138762,"982 John Bruce, Schist Lake, MB R3X 1Y8, Canada",R3X,R0B
1274501,49.9552817,-97.1488958,"2300 McPhillips Street, Winnipeg, MB R2V 3M3, Canada",R2V,R2P
1274687,49.9552817,-97.1488958,"2300 McPhillips Street, Winnipeg, MB R2V 3M3, Canada",R2V,R2P
1274705,49.8746729,-97.2578298,"2510 Portage Avenue #713, Winnipeg, MB R3R 0E5, Canada",R3R,R3J
1274710,49.8182249,-97.1505058,"32 University Crescent #30, Winnipeg, MB R3M 0K5, Canada",R3M,R3T
1274905,49.7655651,-97.1649946,"1013 12th Street, Winnipeg, MB R7A 4A7, Canada",R7A,R3V
1275163,49.9506685,-97.1499413,"180 Market, Winnipeg, MB R3B 0P7, Canada",R3B,R2V
1275240,49.8954221,-97.1385145,"Rbc, 289 Stephen Street, Winnipeg, MB R6M 1V2, Canada",R6M,R3B
1275292,49.9199213,-97.1089051,"239 Ottawa Avenue, Winnipeg, MB R0G 0V0, Canada",R0G,R2K
1275846,49.8873995,-97.1335675,"21 Main Street, Winnipeg, MB R2J 2P1, Canada",R2J,R3C
1275910,49.8746729,-97.2578298,"2510 Portage Avenue #717, Winnipeg, MB R3R 0E5, Canada",R3R,R3J
1275960,49.8958018,-97.1058652,"510 Provencher Boulevard, Winnipeg, MB R2J 0C2, Canada",R2J,R2H
1276164,49.9066962,-97.1808712,"Tec Voc School, 1555 Wall Street, Winnipeg, MB R1R 1R1, Canada",R1R,R3E
1276232,50.6320809,-96.9886746,"76 1St Streat, Gimli, MB R0E 1B0, Canada",R0E,R0C
1276269,49.9552817,-97.1488958,"Mcphillips Health Record Office, 2300 McPhillips Street, Winnipeg, MB R2V 3M3, Canada",R2V,R2P
1276291,53.7608608,-98.8138762,"576 Wall St, Saskatoon, MB R3G 2T3, Canada",R3G,R0B
1276398,49.9731127,-98.2924804,"213 Notre Dame, Portage la Prairie, MB R3B 1N3, Canada",R3B,R1N
1276771,49.8940989,-97.1368915,"303 Main Street 11Th Floor, Winnipeg, MB R3B 1B3, Canada",R3B,R3C
1277022,49.8790536,-97.1459481,"100 Osborne Street, Winnipeg, MB R0C 0A0, Canada",R0C,R3L
1277118,49.8533886,-97.1473444,"868 Jubilee Avenue, Winnipeg, MB R3L 1R2, Canada",R3L,R3T
1277363,49.9001684,-97.2829586,"89 Apple Lane, Winnipeg, MB R3Y 2K8, Canada",R3Y,R2Y
1277869,49.9552817,-97.1488958,"2300 Mcphillips Ave, Winnipeg, MB R2V 3M3, Canada",R2V,R2P
1277959,49.8850872,-97.3082441,"236 Fairlane Avenue #223, Winnipeg, MB R2K 1K6, Canada",R2K,R2Y
1277972,53.7608608,-98.8138762,"#204-595, Winnipeg, MB R3L 0H4, Canada",R3L,R0B
1277985,49.9552817,-97.1488958,"2300 Mcphillips Ave, Winnipeg, MB R2V 3M3, Canada",R2V,R2P
1278540,49.9544024,-97.1474722,"Seven Oak Hospital On, 4 Floor, Winnipeg, MB R2V 3M3, Canada",R2V,R2P
1278895,49.8208771,-97.1820175,"1539 Waverley Street, Winnipeg, MB R3T 4V7, Canada",R3T,R3Y
1278970,50.369098,-97.8891936,"Pr 419 And, Manitoba 6, Lundar, MB R3C 2P4, Canada",R3C,R0C
1279146,49.8904486,-97.1398543,"185 Smith Street, Winnipeg, MB R3G 3G4, Canada",R3G,R3C
1279503,49.8740178,-97.1519586,"245 Wellington Crescent, Winnipeg, MB R3R 0E5, Canada",R3R,R3M
1279505,49.8740178,-97.1519586,"245 Wellington Crescent, Winnipeg, MB R3R 0E5, Canada",R3R,R3M
1279569,49.9180043,-97.1486795,"595 Pritchard Avenue, Winnipeg, MB R3T 3R3, Canada",R3T,R2W
1279631,49.8208771,-97.1820175,"1539 Waverley Street, Winnipeg, MB R3T 4V7, Canada",R3T,R3Y
1279742,49.9057212,-96.980064,"613 McMeans Avenue East #611, Winnipeg, MB R2J 3W6, Canada",R2J,R2C
1279767,49.9036025,-97.1571063,"820 Sherbrook Street, Winnipeg, MB R3A 1R9, Canada",R3A,R3E
1280048,49.905716,-96.9803208,"609 McMeans Avenue East #607, Winnipeg, MB R2J 3W6, Canada",R2J,R2C
1280220,49.9046463,-97.1612427,"770 Bannatyne Avenue, Winnipeg, MB R3T 2N2, Canada",R3T,R3E
1280244,49.9061499,-96.9800535,"120 Allenby Crescent #118, Winnipeg, MB R2J 3Z5, Canada",R2J,R2C
1280245,49.906851,-96.9801369,"4 Bramwell Avenue #2, Winnipeg, MB R2J 3W6, Canada",R2J,R2C
1280323,49.8846796,-97.1340987,"115 Mayfair Avenue A28, Winnipeg, MB R3G 3J4, Canada",R3G,R3L
1280421,49.8808985,-97.0997517,"568 Prosper Street, Winnipeg, MB R2J 0M9, Canada",R2J,R2H
1280474,49.9369753,-97.0624275,"1380 Raleigh Street #65, Winnipeg, MB R2X 0A2, Canada",R2X,R2G
1280534,49.9552817,-97.1488958,"2300 Mcphillips Ave, Winnipeg, MB R2V 3M3, Canada",R2V,R2P
1280692,49.9355612,-97.0889434,"383 McLeod Avenue, Winnipeg, MB R2K 0B1, Canada",R2K,R2G
1280924,49.9048127,-97.1618157,"780 Bannatyne Avenue, Winnipeg, MB R3T 2N2, Canada",R3T,R3E
1280947,49.8620467,-97.1547277,"837 Weatherdon Avenue, Winnipeg, MB R2M 2B3, Canada",R2M,R3M
1281502,49.880265,-97.271524,"200 Ronald Street #621, Winnipeg, MB R3R 0E5, Canada",R3R,R3J
1281765,49.8746729,-97.2578298,"2510 Portage Avenue #423, Winnipeg, MB R3R 0E5, Canada",R3R,R3J
1281767,49.8746729,-97.2578298,"2510 Portage Avenue #105, Winnipeg, MB R3R 0E5, Canada",R3R,R3J
1282104,49.8061707,-97.1562816,"2343 Pembina Highway #3, Winnipeg, MB R3A 0R1, Canada",R3A,R3T
1282300,49.8312423,-97.1687404,"1377 Clarence Avenue, Winnipeg, MB R3B 1J1, Canada",R3B,R3T
1282306,49.865089,-97.161699,"680 Harrow Street, Winnipeg, MB R3C 0G8, Canada",R3C,R3M
1282472,49.82489,-99.96548,"1510 20th Street A3, Brandon, MB R7A 2A6, Canada",R7A,R7B
1282477,49.880265,-97.271524,"200 Ronald Street #807, Winnipeg, MB R3R 0E5, Canada",R3R,R3J
1282718,49.9663677,-96.9694861,"180 Bluegrass Road, Oakbank, MB R0E 1J0, Canada",R0E,R2C
1282828,49.955434,-97.1497236,"7 Oak Hospital, McPhillips Street, Winnipeg, MB R2V 3M3, Canada",R2V,R2P
1282943,49.8773247,-97.4197668,"6030 Portage Avenue, Winnipeg, MB R3G 2W2, Canada",R3G,R4H
1283123,49.90464,-97.1598,"745 Bannatyne Avenue, Winnipeg, MB R2J 3V4, Canada",R2J,R3E
1283271,49.9552817,-97.1488958,"2300 McPhillips Street #3U2, Winnipeg, MB R3E 0M1, Canada",R3E,R2P
1283273,49.9552817,-97.1488958,"2300 McPhillips Street #2La42, Winnipeg, MB R2V 3M3, Canada",R2V,R2P
1283292,56.3493858,-94.7056244,"198 Kelsey, Gillam, MB R1A 1A1, Canada",R1A,R0B
1283977,49.9016415,-97.1401648,"216 Princess Street, Winnipeg, MB R3B 1L4, Canada",R3B,R3A
1284050,50.0614872,-96.5116968,"708 Park Avenue, Beausejour, MB R0A 0C0, Canada",R0A,R0E
1284610,49.9245817,-97.0839817,"845 Golspie Street, Winnipeg, MB R3K 2V5, Canada",R3K,R2K
1284751,49.8565619,-97.1744987,"1305 Grant Avenue #106, Winnipeg, MB R3C 1L8, Canada",R3C,R3M
1284788,49.8981015,-97.0601709,"Kildonan Place, 1555 Regent Avenue West, Winnipeg, MB R2C 4J2, Canada",R2C,R3W
1284814,49.955434,-97.1497236,"7 Oak Hospital, McPhillips Street, Winnipeg, MB R2V 3M3, Canada",R2V,R2P
1284822,49.8841866,-97.1596504,"172 Sherbrook Street, Winnipeg, MB R3C 2B6, Canada",R3C,R3G
1284849,49.8789003,-97.2022305,"1207 200 Ronald, Winnipeg, MB R3G 3J4, Canada",R3G,R3J
1284850,49.8789003,-97.2022305,"1204 234 Ronald, Winnipeg, MB R3G 3J4, Canada",R3G,R3J
1284852,49.8789003,-97.2022305,"Ph 14-200 Ronald, Winnipeg, MB R3G 3J4, Canada",R3G,R3J
1284904,49.9015196,-97.140166,"208 Princess Street, Winnipeg, MB R3B 1L4, Canada",R3B,R3A
1284912,56.3473843,-94.7117692,"133 Kelsey Bay, Gillam, MB R1A 1A1, Canada",R1A,R0B
1285384,49.7977105,-97.1693721,"1301 Lee Boulevard, Winnipeg, MB R3T 5W8, Canada",R3T,R3Y
1285724,49.8789003,-97.2022305,"904 200 Ronald, Winnipeg, MB R3G 3J4, Canada",R3G,R3J
1286563,49.8954221,-97.1385145,"838 Hamilton B116, Winnipeg, MB R3G 3J4, Canada",R3G,R3B
1286644,49.8756629,-97.1004558,"565 Guilbault Street, Winnipeg, MB R2J 0R2, Canada",R2J,R2H
1286672,49.9858377,-98.2833699,"840 3 Street Northeast, Portage la Prairie, MB R0H 0Y0, Canada",R0H,R1N
1287155,49.8738743,-97.1409516,"270 Osborne Street, Winnipeg, MB R3C 1V7, Canada",R3C,R3L
1287587,49.8702369,-97.2079074,"170 Doncaster Street, Winnipeg, MB R3C 0V8, Canada",R3C,R3N
1287687,49.8851433,-97.1776712,"1075 Portage Avenue, Winnipeg, MB R3M 0K5, Canada",R3M,R3G
1287689,49.9406603,-97.1200681,"281 Burrin Avenue, Winnipeg, MB R3A 1R9, Canada",R3A,R2V
1287916,49.8984101,-97.1779037,"2 Sargent Park Place, Winnipeg, MB R3E 0V8, Canada",R3E,R3G
1287932,49.8734429,-97.1264212,"63 Claremont Avenue, Winnipeg, MB R1A 0Y5, Canada",R1A,R2H
1287999,49.8830083,-97.1133353,"303 Goulet Street #902, Winnipeg, MB R3T 0P3, Canada",R3T,R2H
1288000,49.8899686,-97.145722,"205 Edmonton Street Unit 201, Winnipeg, MB R1A 0Y5, Canada",R1A,R3C
1288066,49.8789003,-97.2022305,"220 233 Booth, Winnipeg, MB R3G 3J4, Canada",R3G,R3J
1288153,49.9552817,-97.1488958,"2300 McPhillips Street, Winnipeg, MB R3M 3E3, Canada",R3M,R2P
1288234,50.2407656,-97.0056119,"833 Clandeboye Road, St. Andrews, MB R1A 4K1, Canada",R1A,R0C
1288246,49.8789003,-97.2022305,"601 233 Booth, Winnipeg, MB R3G 3J4, Canada",R3G,R3J
1288526,49.955434,-97.1497236,"7 Oak Hospital, McPhillips Street, Winnipeg, MB R2V 3M3, Canada",R2V,R2P
1288607,49.8746729,-97.2578298,"2510 Portage Avenue #606, Winnipeg, MB R3G 0J4, Canada",R3G,R3J
1288623,49.8746729,-97.2578298,"2510 Portage Avenue #306, Winnipeg, MB R3G 0J4, Canada",R3G,R3J
1288626,49.8746729,-97.2578298,"2510 Portage Avenue #707, Winnipeg, MB R3G 0J4, Canada",R3G,R3J
1288628,49.8746729,-97.2578298,"2510 Portage Avenue #507, Winnipeg, MB R3G 0J4, Canada",R3G,R3J
1288630,49.8746729,-97.2578298,"2510 Portage Avenue #401, Winnipeg, MB R3G 0J4, Canada",R3G,R3J
1288631,49.8746729,-97.2578298,"2510 Portage Avenue #515, Winnipeg, MB R3R 0E5, Canada",R3R,R3J
1288632,49.8746729,-97.2578298,"2510 Portage Avenue #105, Winnipeg, MB R3G 0J4, Canada",R3G,R3J
1288668,50.2344467,-99.4629424,"445 Hospital Street, Neepawa, MB R2J 0X5, Canada",R2J,R0J
1288790,49.9552817,-97.1488958,"2300 McPhillips Street #4U10, Winnipeg, MB R2V 3M3, Canada",R2V,R2P
1288794,49.9552817,-97.1488958,"2300 McPhillips Street #4U12, Winnipeg, MB R2V 3M3, Canada",R2V,R2P
1288851,49.937379,-97.077394,"271 Edison Avenue, Winnipeg, MB R3G 3J4, Canada",R3G,R2G
1288896,56.3493858,-94.7056244,"143 Nelson Cres, Gillam, MB R1A 1A1, Canada",R1A,R0B
1288957,49.898647,-97.146426,"65 Ellen Street, Winnipeg, MB R3A 0Z8, Canada",R3A,R3B
1289011,49.9066962,-97.1808712,"1555 Wall Street, Winnipeg, MB R2E 2S2, Canada",R2E,R3E
1289240,49.1035101,-97.5586602,"7107 Road 12 N.W, Altona, MB R1A 0Y5, Canada",R1A,R0G
1289364,49.9552817,-97.1488958,"2300 McPhillips Street Various Repairs, Winnipeg, MB R2V 3M3, Canada",R2V,R2P
1289388,49.955434,-97.1497236,"7 Oak Hospital, McPhillips Street, Winnipeg, MB R2V 3M3, Canada",R2V,R2P
1289631,49.9411627,-97.071064,"15 Bridgewater Crescent, Winnipeg, MB R1A 0Y5, Canada",R1A,R2G
1289781,49.8789003,-97.2022305,"121 200 Ronald, Winnipeg, MB R3G 3J4, Canada",R3G,R3J
1289802,49.8721285,-97.1961204,"161 Renfrew Street, Winnipeg, MB R3P 2H1, Canada",R3P,R3N
1289963,49.8847646,-97.2804081,"700 Setter Street #403, Winnipeg, MB R3R 0E5, Canada",R3R,R2Y
1290066,49.898647,-97.146426,"65 Ellen Street, Winnipeg, MB R3A 0Z8, Canada",R3A,R3B
1290400,49.8433841,-97.1223423,"St Johns Ravenscourt, South Drive, Winnipeg, MB R2J 3V4, Canada",R2J,R3T
1290467,49.8979831,-97.1857653,"1070 Clifton Street, Winnipeg, MB R3A 2V4, Canada",R3A,R3E
1290470,49.8208771,-97.1820175,"1539 Waverley Street, Winnipeg, MB R3T 2V7, Canada",R3T,R3Y
1290570,49.9856639,-97.0624312,"3740 Main Street, Winnipeg, MB R2C 1L2, Canada",R2C,R4A
1290928,49.8719896,-97.1489951,"640 Corydon Avenue, Winnipeg, MB R3M 0X7, Canada",R3M,R3L
1290998,49.857258,-97.2294683,"2240 Grant Avenue, Winnipeg, MB R3E 2T1, Canada",R3E,R3P
1291032,49.955434,-97.1497236,"7 Oak Hospital, McPhillips Street, Winnipeg, MB R2V 3M3, Canada",R2V,R2P
1291164,50.105343,-96.014935,"Seven Sisters Training Center, Seven Sisters Falls, MB R3C 0G8, Canada",R3C,R0E
1291181,56.4704971,-100.0076549,"School Town Center, Leaf Rapids, MB R8N 1M3, Canada",R8N,R0B
1291196,49.8964401,-97.2099958,"660 Berry Street, Winnipeg, MB R3C 2S4, Canada",R3C,R3H
1291226,56.4704971,-100.0076549,"School Town Center, Leaf Rapids, MB R8N 1M3, Canada",R8N,R0B
1291259,49.898647,-97.146426,"65 Ellen Street, Winnipeg, MB R3A 0Z8, Canada",R3A,R3B
1291288,49.8847196,-97.1412015,"15 Carlton Street #904, Winnipeg, MB R3P 2H8, Canada",R3P,R3C
1291290,49.8703057,-97.2579627,"3420 Vialoux Drive #46, Winnipeg, MB R2P 2H8, Canada",R2P,R3R
1291292,49.8334101,-97.1153015,"11 Saint Michael Road #101, Winnipeg, MB R2P 2H8, Canada",R2P,R2M
1291423,49.9046463,-97.1612427,"770 Bannatyne Avenue, Winnipeg, MB R3B 0R3, Canada",R3B,R3E
1291643,49.9663677,-96.9694861,"180 Bluegrass Road, Oakbank, MB R0E 1J0, Canada",R0E,R2C
1291687,49.874909,-97.177775,"928 Wellington Crescent, Winnipeg, MB R3M 0C7, Canada",R3M,R3N
1292303,49.9414229,-97.1706346,"1330 Inkster Boulevard, Winnipeg, MB R3M 0K5, Canada",R3M,R2X
1292316,49.9715133,-98.3002195,"103 7 Street Southwest, Portage la Prairie, MB R0H 1N1, Canada",R0H,R1N
1292340,49.898647,-97.146426,"65 Ellen Street, Winnipeg, MB R3A 0Z8, Canada",R3A,R3B
1292342,49.9715133,-98.3002195,"103 7 Street Southwest, Portage la Prairie, MB R0H 1N1, Canada",R0H,R1N
1292761,49.8746729,-97.2578298,"2510 Portage Avenue #8A, Winnipeg, MB R3G 3G4, Canada",R3G,R3J
1292823,49.8657901,-97.1094762,"20 Harrowby Avenue, Winnipeg, MB R2V 4Y2, Canada",R2V,R2M
1292875,49.898647,-97.146426,"65 Ellen Street, Winnipeg, MB R3A 0Z8, Canada",R3A,R3B
1292969,49.8746729,-97.2578298,"2510 Portage Avenue #410, Winnipeg, MB R3G 3J4, Canada",R3G,R3J
1292973,49.8746729,-97.2578298,"2510 Portage Avenue #407, Winnipeg, MB R3G 3J4, Canada",R3G,R3J
1292974,49.8746729,-97.2578298,"2510 Portage Avenue #702, Winnipeg, MB R3G 3J4, Canada",R3G,R3J
1292982,49.8746729,-97.2578298,"2510 Portage Avenue #715, Winnipeg, MB R3G 3J4, Canada",R3G,R3J
1293143,49.890954,-97.1572304,"407 Furby Street, Winnipeg, MB R2C 1L2, Canada",R2C,R3B
1293145,49.8858636,-97.2617147,"2055 Ness Avenue, Winnipeg, MB R3B 1J1, Canada",R3B,R3J
1293204,49.8964401,-97.2099958,"660 Berry Street, Winnipeg, MB R3C 2S4, Canada",R3C,R3H
1293362,49.8714629,-97.1126238,"421 Saint Mary's Road, Winnipeg, MB R1A 0Y5, Canada",R1A,R2M
1293541,49.887665,-97.263828,"515 Strauss Drive #15, Winnipeg, MB R3C 1T1, Canada",R3C,R3J
1293702,49.9183004,-97.2119707,"2055 Notre Dame Avenue Hm20, Winnipeg, MB R3H 0J9, Canada",R3H,R2R
1293933,49.865089,-97.161699,"700 Harrow Street, Winnipeg, MB R3C 0G8, Canada",R3C,R3M
1294036,49.8789003,-97.2022305,"806 200 Ronald, Winnipeg, MB R3G 3J4, Canada",R3G,R3J
1294037,49.8789003,-97.2022305,"616 200 Ronald, Winnipeg, MB R3G 3J4, Canada",R3G,R3J
1294039,49.8789003,-97.2022305,"101 200 Ronald, Winnipeg, MB R3G 3J4, Canada",R3G,R3J
1294093,49.8833294,-97.0931358,"349 Dupuy Avenue, Winnipeg, MB R2C 1L2, Canada",R2C,R2J
1294211,49.8261431,-99.9725791,"1525 26th Street, Brandon, MB R7A 3C2, Canada",R7A,R7B
1294692,49.8746729,-97.2578298,"2510 Portage Avenue #106, Winnipeg, MB R3G 3J4, Canada",R3G,R3J
1294727,49.8111959,-97.1325081,"190 Dysart Road, Winnipeg, MB R3H 0K5, Canada",R3H,R3T
1295204,49.9183004,-97.2119707,"2055 Notre Dame Avenue Hm20, Winnipeg, MB R3H 0J9, Canada",R3H,R2R
1295888,49.8817595,-97.0716559,"875 Lagimodiere Boulevard, Winnipeg, MB R3J 3K4, Canada",R3J,R2J
1296132,49.9552817,-97.1488958,"2300 McPhillips Street #3B05, Winnipeg, MB R2V 3M3, Canada",R2V,R2P
1296143,49.8495458,-97.0982102,"14 Bonita Avenue A06, Winnipeg, MB R3G 3J4, Canada",R3G,R2M
1296882,49.8789003,-97.2022305,"1099 Grant, Winnipeg, MB R3G 3J4, Canada",R3G,R3J
1296883,49.9003449,-96.984123,"696 Kildare Avenue East, Winnipeg, MB R3G 3J4, Canada",R3G,R2C
1296991,49.8720297,-97.1887435,"160 Cordova Street, Winnipeg, MB R3M 0K5, Canada",R3M,R3N
1297292,49.8954221,-97.1385145,"Lot 11  Block 3, Star Lake, MB R0E 0N0, Canada",R0E,R3B
1297387,49.89023,-97.04053,"56F Rougeau Avenue, Winnipeg, MB R3C 3X5, Canada",R3C,R2C
1297448,49.9133535,-97.18525,"1397 Lincoln Avenue, Winnipeg, MB R2R 0G8, Canada",R2R,R3E
1297450,49.8787899,-97.1258101,"66 Saint Mary's Road #44, Winnipeg, MB R2N 3Z3, Canada",R2N,R2H
1297515,49.8571463,-97.206113,"1984 Grant Avenue, Winnipeg, MB R3M 1Y9, Canada",R3M,R3N
1297642,49.8111959,-97.1325081,"190 Dysart Road, Winnipeg, MB R3H 0K5, Canada",R3H,R3T
1297800,49.8345614,-97.1693978,"1370 Sony Place, Winnipeg, MB R3C 3Y4, Canada",R3C,R3T
1298009,49.8706026,-97.2467168,"700 Assiniboine Park Drive, Winnipeg, MB R3P 2N9, Canada",R3P,R3N
1298034,49.9404005,-97.0852417,"279 Edison Avenue #23, Winnipeg, MB R3G 3T4, Canada",R3G,R2G
1298443,49.8795355,-97.1690273,"78 Home Street, Winnipeg, MB R3C 1W9, Canada",R3C,R3G
1298488,49.8373836,-99.9650395,"804 20th Street, Brandon, MB R7B 1M6, Canada",R7B,R7A
1298550,50.105343,-96.014935,"Seven Sisters Training Center, Seven Sisters Falls, MB R3C 0G8, Canada",R3C,R0E
1298570,49.9404005,-97.0852417,"279 Edison Avenue #23, Winnipeg, MB R3G 3J4, Canada",R3G,R2G
1298907,49.8764689,-97.2390753,"2170 Portage Avenue, Winnipeg, MB R3G 3T4, Canada",R3G,R3J
1299089,49.8666776,-97.2092202,"1975 Corydon, Corydon Avenue, Winnipeg, MB R3R 0E5, Canada",R3R,R3P
1299115,49.8571463,-97.206113,"1984 Grant Avenue, Winnipeg, MB R3M 1Y9, Canada",R3M,R3N
1299116,49.8571463,-97.206113,"1984 Grant Avenue, Winnipeg, MB R3M 1Y9, Canada",R3M,R3N
1299201,49.8655288,-99.930602,"375 Veteran's Way, Brandon, MB R7C 0B1, Canada",R7C,R7A
1299283,49.9552817,-97.1488958,"2300 McPhillips Street, Winnipeg, MB R2V 3M3, Canada",R2V,R2P
1299453,49.8827858,-97.1149359,"291 Goulet Street A206, Winnipeg, MB R3R 0E5, Canada",R3R,R2H
1299633,49.8788739,-97.153705,"270 Roslyn Road #1005, Winnipeg, MB R2L 2C1, Canada",R2L,R3L
1299688,49.8522547,-97.1388592,"441 Kingston Crescent, Winnipeg, MB R3E 2T1, Canada",R3E,R2M
1299824,49.8585354,-97.2595549,"515 Laxdal Road A103, Winnipeg, MB R3G 3J4, Canada",R3G,R3R
1299825,49.8585354,-97.2595549,"515 Laxdal Road A101, Winnipeg, MB R3G 3J4, Canada",R3G,R3R
1300124,49.8571463,-97.206113,"1984 Grant Avenue, Winnipeg, MB R3M 1Y9, Canada",R3M,R3N
1300445,50.0839439,-98.5066638,"Rd 46 W, Portage la Prairie, MB R1N 3J9, Canada",R1N,R0H
1300761,50.0121781,-96.8433026,"68092 Manitoba 206, Cooks Creek, MB R1A 0Y5, Canada",R1A,R0E
1300771,49.9406948,-97.0856201,"271 Edison Avenue #15, Winnipeg, MB R3G 3T4, Canada",R3G,R2G
1300774,49.9406948,-97.0856201,"271 Edison Avenue #23, Winnipeg, MB R3G 3T4, Canada",R3G,R2G
1300837,49.8137396,-97.1833448,"#1108-700, Winnipeg, MB R3G 3T4, Canada",R3G,R3Y
1300936,49.8437486,-99.9514807,"Assiniboine Community College North Campus, Brandon, MB R0K 0W0, Canada",R0K,R7A
1301027,49.8703057,-97.2579627,"3420 Vialoux Drive #61, Winnipeg, MB R3G 3T4, Canada",R3G,R3R
1301042,49.8827969,-97.1165365,"261 Goulet Street B534, Winnipeg, MB R3G 3T4, Canada",R3G,R2H
1301665,49.7565961,-96.9056541,"858 Dawson Road Mb, Lorette, MB R2X 2V7, Canada",R2X,R0A
1301668,49.7565961,-96.9056541,"858 Dawson Road, Lorette, MB R2X 2V7, Canada",R2X,R0A
1301746,49.8666776,-97.2092202,"1975 Corydon, Corydon Avenue, Winnipeg, MB R3R 0E7, Canada",R3R,R3P
1301924,49.8111959,-97.1325081,"190 Dysart Road, Winnipeg, MB R3H 0K5, Canada",R3H,R3T
1302062,49.8788739,-97.153705,"270 Roslyn Road #508, Winnipeg, MB R3G 3T4, Canada",R3G,R3L
1302186,49.955434,-97.1497236,"7 Oak Hospital, McPhillips Street, Winnipeg, MB R2V 3M3, Canada",R2V,R2P
1302416,49.8571463,-97.206113,"1984 Grant Avenue, Winnipeg, MB R3M 1Y9, Canada",R3M,R3N
1302500,49.9552817,-97.1488958,"2300 McPhillips Street #3B28, Winnipeg, MB R2V 3M3, Canada",R2V,R2P
1302575,49.9193985,-97.1989449,"1869 Elgin Avenue West, Winnipeg, MB R0C 2Z0, Canada",R0C,R2R
1302602,49.901058,-97.1432342,"354 Elgin Avenue, Winnipeg, MB R2W 2H4, Canada",R2W,R3A
1303093,49.8863585,-97.1443862,"386 Broadway, Winnipeg, MB R3G 2T9, Canada",R3G,R3C
1303097,49.9725444,-98.2705179,"50 14 Street Northeast, Portage la Prairie, MB R2C 2Z2, Canada",R2C,R1N
1303125,49.8827858,-97.1149359,"291 Goulet Street A203, Winnipeg, MB R3G 3T4, Canada",R3G,R2H
1303195,50.0121781,-96.8433026,"Birds Hill Provincial Park, Sustainable Development, Campground Water Treatment Facility, 68092 Manitoba 206, Cooks Creek, MB R1A 0Y5, Canada",R1A,R0E
1303196,50.0121781,-96.8433026,"Birds Hill Provincial Park, Sustainable Development, Campground Water Treatment Facility, 68092 P.R. 206 Mb, Cooks Creek, MB R1A 0Y5, Canada",R1A,R0E
1303385,49.9048127,-97.1618157,"780 Bannatyne Avenue, Winnipeg, MB R3T 2N2, Canada",R3T,R3E
1303387,49.90464,-97.1598,"745 Bannatyne Avenue, Winnipeg, MB R3T 2N2, Canada",R3T,R3E
1303478,49.8840202,-97.1129168,"372 Enfield Crescent, Winnipeg, MB R3L 2B9, Canada",R3L,R2H
1303937,49.8789003,-97.2022305,"1099 Grant #411, Winnipeg, MB R3G 3J4, Canada",R3G,R3J
1303968,49.9725444,-98.2705179,"50 14 Street Northeast, Portage la Prairie, MB R1A 1R5, Canada",R1A,R1N
1304391,49.9437506,-97.1223941,"1050 Powers Street #105, Winnipeg, MB R3L 0M6, Canada",R3L,R2V
1304392,49.9437506,-97.1223941,"1050 Powers Street #105, Winnipeg, MB R3L 0M6, Canada",R3L,R2V
1304602,49.6081992,-97.0385607,"225 2 Street North, Niverville, MB R0E 1A0, Canada",R0E,R0A
1304627,49.8840202,-97.1129168,"372 Enfield Crescent, Winnipeg, MB R3L 2B8, Canada",R3L,R2H
1304724,49.8785925,-97.2726993,"2727 Portage Avenue, Winnipeg, MB R3R 0E5, Canada",R3R,R3J
1304740,49.898647,-97.146426,"65 Ellen Street, Winnipeg, MB R3A 0Z8, Canada",R3A,R3B
1304888,49.8162261,-99.6442218,"Shilo Road L-107, Shilo, MB R0K 2A0, Canada",R0K,R7A
1304894,49.9183004,-97.2119707,"2055 Notre Dame Avenue Hm20, Winnipeg, MB R3H 0J9, Canada",R3H,R2R
1304951,49.9166676,-97.1113928,"185 Harbison Avenue West, Winnipeg, MB R2L 0A3, Canada",R2L,R2K
1305561,49.9450161,-97.1109416,"2021 Main Street, Winnipeg, MB R2V 2B9, Canada",R2V,R2G
1305637,49.8561617,-97.2834542,"530 Dieppe Road, Winnipeg, MB R2R 1C4, Canada",R2R,R3R
1305684,49.905638,-97.077592,"714 Keenleyside Street #15, Winnipeg, MB R2K 4A1, Canada",R2K,R2L
1305895,49.9212846,-97.2021687,"1935 Ross Avenue West, Winnipeg, MB R2X 0A2, Canada",R2X,R2R
1306599,49.8244116,-97.1537963,"1793 Pembina Highway #203, Winnipeg, MB R3P 2H8, Canada",R3P,R3T
1306724,49.8162261,-99.6442218,"Shilo Road L-105, Shilo, MB R0K 2A0, Canada",R0K,R7A
1307701,49.8247016,-97.1801733,"1455 Waverley Street #6, Winnipeg, MB R3T 5Y6, Canada",R3T,R3Y
1307784,49.8160847,-97.1507719,"2080 Pembina Highway #406, Winnipeg, MB R3M 2G9, Canada",R3M,R3T
1307862,49.8923607,-97.2098607,"585 Berry Street, Winnipeg, MB R3C 0G8, Canada",R3C,R3H
1308013,49.9406948,-97.0856201,"271 Edison Avenue #23, Winnipeg, MB R3G 3J4, Canada",R3G,R2G
1308016,49.9406948,-97.0856201,"271 Edison Avenue #20, Winnipeg, MB R3G 3J4, Canada",R3G,R2G
1308026,49.8443769,-99.8947806,"452 33 Street East, Brandon, MB R7B 3J8, Canada",R7B,R7A
1308235,49.8113314,-97.1345356,"144 Dysart Road Office 141B, Winnipeg, MB R2J 4A8, Canada",R2J,R3T
1308400,49.890276,-97.2675663,"161 Strauss Drive #14, Winnipeg, MB R3C 1T1, Canada",R3C,R3J
1308476,53.7266683,-127.6476205,"Selkirk Generating Station, 9527 W 0K2, Selkirk, BC R1A 0Z3, Canada",R1A,
1309570,49.916455,-97.2119638,"2255 Notre Dame Avenue Hm20, Winnipeg, MB R3H 0J9, Canada",R3H,R2R
1309615,49.8923891,-97.1011404,"552 Plinguet Street, Winnipeg, MB R2V 4Y2, Canada",R2V,R2J
1309952,49.8104897,-97.1362524,"92 Dysart Road, Winnipeg, MB R5G 2N2, Canada",R5G,R3T
1309988,49.8789003,-97.2022305,"595 River, Winnipeg, MB R3G 3J4, Canada",R3G,R3J
1309994,49.8908755,-97.1788537,"969 Saint Matthews Avenue, Winnipeg, MB R3E 3H4, Canada",R3E,R3G
1310415,49.8923607,-97.2098607,"585 Berry Street, Winnipeg, MB R3C 0G8, Canada",R3C,R3H
1310473,49.9002409,-97.1527899,"56 Juno Street, Winnipeg, MB R3E 0N4, Canada",R3E,R3A
1310821,49.9301739,-97.0134343,"488 Walker Street, Winnipeg, MB R2V 4Y2, Canada",R2V,R2C
1310881,49.8885006,-97.1704304,"361 Burnell Street, Winnipeg, MB R3T 2H2, Canada",R3T,R3G
1311046,49.8112535,-97.133417,"Machray Hall, 186 Dysart Road, Winnipeg, MB R3B 0S8, Canada",R3B,R3T
1311100,49.9261667,-97.1192919,"117 Inkster Boulevard, Winnipeg, MB R3B 0B3, Canada",R3B,R2W
1312280,49.8847646,-97.2804081,"700 Setter Street, Winnipeg, MB R3J 0N9, Canada",R3J,R2Y
1312281,49.9248675,-97.0903662,"770 Watt Street Ph5, Winnipeg, MB R3J 0N9, Canada",R3J,R2K
1312324,49.9164668,-97.1108433,"199 Harbison Avenue West, Winnipeg, MB R2L 0A3, Canada",R2L,R2K
1312750,49.8624188,-97.1575981,"910 Scotland Avenue, Winnipeg, MB R3C 0G8, Canada",R3C,R3M
1313019,49.8863585,-97.1443862,"386 Broadway, Winnipeg, MB R3G 2T9, Canada",R3G,R3C
1313064,49.9220641,-97.195008,"205 Keewatin Street #20, Winnipeg, MB R2R 0Z5, Canada",R2R,R3E
1313420,49.8070392,-97.1316393,"34 Maclean Crescent, Winnipeg, MB R2J 2N1, Canada",R2J,R3T
1313887,49.9447175,-97.2039688,"195 Kinver Avenue, Winnipeg, MB R3M 0K5, Canada",R3M,R2R
1314016,49.8947743,-97.1651985,"690 Beverley Street, Winnipeg, MB R3M 3E3, Canada",R3M,R3G
1314027,49.8493226,-97.0999833,"350 Saint Anne's Road, Winnipeg, MB R2J 1B5, Canada",R2J,R2M
1314090,49.8975419,-97.1801818,"999 Sargent Avenue, Winnipeg, MB R3E 3K6, Canada",R3E,R3G
1314225,49.9220641,-97.195008,"205 Keewatin Street #20, Winnipeg, MB R2R 0Z5, Canada",R2R,R3E
1314233,49.8655228,-97.1092666,"25 Dunraven Avenue, Winnipeg, MB R3C 0G8, Canada",R3C,R2M
1314331,49.889451,-97.1481942,"Winnipeg Clinic, Saint Mary Avenue, Winnipeg, MB R0E 1J0, Canada",R0E,R3C
1314811,49.8815531,-97.1598487,"96 Sherbrook Street, Winnipeg, MB R3C 2B3, Canada",R3C,R3G
1314871,49.9220641,-97.195008,"205 Keewatin Street #20, Winnipeg, MB R2R 0Z5, Canada",R2R,R3E
1315142,49.9552817,-97.1488958,"Staff Room, 2300 McPhillips Street 21C15 21C19, Winnipeg, MB R2V 3M3, Canada",R2V,R2P
1315505,49.890293,-97.0433295,"95 Bournais Drive, Winnipeg, MB R3C 3Z2, Canada",R3C,R2C
1315955,49.7690419,-97.1718065,"237 Laurent Drive, Winnipeg, MB R2X 1G4, Canada",R2X,R3V
1316050,49.8795355,-97.1690273,"78 Home Street, Winnipeg, MB R3C 2B9, Canada",R3C,R3G
1316083,49.8975419,-97.1801818,"999 Sargent Avenue, Winnipeg, MB R3E 3K6, Canada",R3E,R3G
1316166,49.8203617,-97.2250216,"1961 McCreary Road, Winnipeg, MB R3Y 1S9, Canada",R3Y,R3P
1316377,49.9001917,-97.1628016,"691 Wellington Avenue, Winnipeg, MB R3G 1C3, Canada",R3G,R3E
1316378,49.880693,-97.1600786,"62 Sherbrook Avenue, Winnipeg, MB R3C 2B3, Canada",R3C,R3G
1316413,49.8842733,-97.1836132,"1181 Portage Avenue, Winnipeg, MB R2V 4Y2, Canada",R2V,R3G
1316448,49.1922753,-98.114271,"Menzies Medical Centre, Morden, MB R2V 4Y2, Canada",R2V,R6M
1316490,49.853271,-97.1729129,"75 Poseidon Bay, Winnipeg, MB R2J4A8, Canada",R2J,R3M
1316570,49.8987952,-97.2237493,"2020 Sargent Avenue, Winnipeg, MB R3H 0Z7, Canada",R3H,R3J
1316834,49.9143256,-97.1343651,"267 Manitoba Avenue, Winnipeg, MB R3B 0B3, Canada",R3B,R2W
1316877,49.9211369,-97.1422345,"523 Redwood Avenue Suite 1, Winnipeg, MB R3W 1S7, Canada",R3W,R2W
1317461,49.8825361,-97.1363416,"190 River Avenue, Winnipeg, MB R2M 5C4, Canada",R2M,R3L
1317773,49.9051089,-97.2172874,"3899 Saskatchewan Avenue, Winnipeg, MB R3C 0G8, Canada",R3C,R3J
1317814,49.8919367,-97.1475885,"394 Portage Avenue, Winnipeg, MB R3B 0C7, Canada",R3B,R3C
1318263,49.892102,-97.1038966,"307 Archibald Street, Winnipeg, MB R2J 0W6, Canada",R2J,R2H
1318575,49.8789003,-97.2022305,"1099 Grant #311, Winnipeg, MB R3G 3J4, Canada",R3G,R3J
1318689,49.8697838,-97.1998248,"319 Beaverbrook Street, Winnipeg, MB R3M 1N9, Canada",R3M,R3N
1318799,49.8790355,-97.1602666,"99 Cornish Avenue, Winnipeg, MB R3C 1A2, Canada",R3C,R3G
1318822,49.9590476,-97.1433954,"2536 McPhillips Street, Winnipeg, MB R2V 4J8, Canada",R2V,R2P
1318842,49.8109062,-97.1338437,"30B Sifton Road, Winnipeg, MB R5G 1L3, Canada",R5G,R3T
1319022,49.8941054,-97.1957952,"1 Empress Street, Winnipeg, MB R3C 0G8, Canada",R3C,R3G
1319202,49.9046133,-97.1592896,"Health Science Centre, Sherbrook Street, Winnipeg, MB R3C 1L8, Canada",R3C,R3E
1319478,51.1605296,-100.0693251,"257 Industrial Road, Dauphin, MB R0L 2B0, Canada",R0L,R7N
1320109,49.9992891,-96.8933874,"Correctional Centre, Headingley, MB R0E 1J0, Canada",R0E,R2C
1320270,49.8921471,-97.1229151,"169 Provencher Boulevard, Winnipeg, MB R3B 0A9, Canada",R3B,R2H
1320300,49.8620098,-97.189681,"480 Cordova Street, Winnipeg, MB R3A 1N7, Canada",R3A,R3N
1320471,49.8185492,-97.1159479,"730 River Road #32, Winnipeg, MB R2M 4A2, Canada",R2M,R2N
1321102,49.8801807,-97.160579,"690 Wolseley Avenue, Winnipeg, MB R3C 2A2, Canada",R3C,R3G
1321112,49.8430113,-97.0891502,"25 Marlene Street #4, Winnipeg, MB R2X 0A2, Canada",R2X,R2M
1321341,49.9183004,-97.2119707,"2055 Notre Dame Avenue, Winnipeg, MB R3H 0J9, Canada",R3H,R2R
1321626,49.9452958,-97.2526103,"63154 Klimpke Road, Winnipeg, MB R0H 1E0, Canada",R0H,R3C
1321670,49.8790355,-97.1602666,"99 Cornish Avenue, Winnipeg, MB R3C 1A2, Canada",R3C,R3G
1321675,49.9057741,-97.2231736,"2000 Wellington Avenue, Winnipeg, MB R3H 1C2, Canada",R3H,R3J
1322200,49.9138098,-97.0619441,"1133 Kimberly Avenue #102, Winnipeg, MB R3K 2G8, Canada",R3K,R2K
1322239,49.8380213,-97.1543836,"279 Hudson Street, Winnipeg, MB R3G 2V4, Canada",R3G,R3T
1322266,49.7192752,-97.1682444,"4403 Waverley Street, La Salle, MB R0G 0A1, Canada",R0G,R5A
1323064,50.1557041,-96.8762278,"605 Mercy Street North, Selkirk, MB R0C 0P0, Canada",R0C,R1A
1323324,49.8797453,-97.0984685,"587 Tremblay Street, Winnipeg, MB R2J 0N7, Canada",R2J,R2H
1323400,49.9183004,-97.2119707,"2055 Notre Dame Avenue Hm20, Winnipeg, MB R3H 0J9, Canada",R3H,R2R
1323405,49.7859882,-97.1580466,"2945 Pembina Highway, Winnipeg, MB R3R 0E5, Canada",R3R,R3T
1323696,49.8789003,-97.2022305,"165 Main St #306, Selkirk, MB R3G 3J4, Canada",R3G,R3J
1323737,49.8790355,-97.1602666,"99 Cornish Avenue, Winnipeg, MB R3C 1A2, Canada",R3C,R3G
1323792,49.8264942,-97.150717,"1750 Pembina Highway #324, Winnipeg, MB R3L 0H3, Canada",R3L,R3T
1323808,49.8208771,-97.1820175,"1539 Waverley Street, Winnipeg, MB R3T 4V7, Canada",R3T,R3Y
1323878,49.8655288,-99.930602,"375 Veteran's Way, Brandon, MB R7C 0B1, Canada",R7C,R7A
1324011,49.9661717,-98.7781945,"Macgregor Elementary School, MacGregor, MB R3G 0R3, Canada",R3G,R0H
1324124,49.8741759,-97.1731055,"828 Wellington Crescent, Winnipeg, MB R3H 3H0, Canada",R3H,R3M
1324516,49.8952633,-97.3114075,"170 Lumsden Avenue Unit 38 And 39, Winnipeg, MB R2K 2K5, Canada",R2K,R2Y
1324524,53.183982,-99.2675215,"Generating Station, Grand Rapids, MB R2J 4A8, Canada",R2J,R0C
1324644,49.923172,-97.1018689,"1010 Brazier Street #211, Winnipeg, MB R3T 0P3, Canada",R3T,R2K
1324958,49.8379174,-97.1567518,"1134 Waller Avenue, Winnipeg, MB R3M 2X7, Canada",R3M,R3T
1325342,49.8816653,-97.2493045,"339 Strathmillan Road, Winnipeg, MB R2J 2V6, Canada",R2J,R3J
1325565,49.8699404,-97.1479991,"617 Mulvey Avenue, Winnipeg, MB R3M 1G1, Canada",R3M,R3L
1325710,49.8516426,-97.1846252,"913 Ash Street, Winnipeg, MB R3N 0S1, Canada",R3N,R3P
1325774,49.8764964,-97.1515408,"99 Wellington Crescent, Winnipeg, MB R3L 0H2, Canada",R3L,R3M
1325868,49.9213331,-97.1527377,"726 Burrows Avenue, Winnipeg, MB R2R 1H5, Canada",R2R,R2W
1326515,49.8746239,-97.1872626,"136 Brock Street, Winnipeg, MB R3B 0B3, Canada",R3B,R3N
1327362,49.7859882,-97.1580466,"2945 Pembina Highway, Winnipeg, MB R3J 0N9, Canada",R3J,R3T
1327613,50.0931179,-99.9209633,"110074 Road 74 North, Rapid City, MB R0K 1W0, Canada",R0K,R0J
1327850,49.9133532,-97.1356632,"286 Pritchard Avenue, Winnipeg, MB R2X 0J3, Canada",R2X,R2W
1327863,49.9992891,-96.8933874,"Correctional Facility, Headingley, MB R0E 1J0, Canada",R0E,R2C
1328093,49.8469392,-97.0981336,"410 Saint Anne's Road, Winnipeg, MB R3G 3T4, Canada",R3G,R2M
1328095,49.8469392,-97.0981336,"410 Saint Anne's Road, Winnipeg, MB R3T 3G4, Canada",R3T,R2M
1328221,49.8845982,-97.1782045,"1071 Portage Avenue, Winnipeg, MB R3J 0P7, Canada",R3J,R3G
1328661,49.8790355,-97.1602666,"99 Cornish Avenue, Winnipeg, MB R3C 1A2, Canada",R3C,R3G
1329034,49.8507116,-97.011528,"Cn, Loading Dock, Symington Road, Winnipeg, MB R2J 0T8, Canada",R2J,R2C
1329038,53.168656,-99.290179,"Hydro -  Hatchery, Hybord Avenue, Grand Rapids, MB R5R 0C1, Canada",R5R,R0C
1329222,49.8901853,-97.0237473,"1199 Plessis Road, Winnipeg, MB R2J 4A8, Canada",R2J,R2C
1329233,49.8389007,-97.156486,"58 Beaumont Bay, Winnipeg, MB R3P 1J2, Canada",R3P,R3T
1329272,49.9494508,-97.1682921,"1174 Jefferson Avenue, Winnipeg, MB R3B 2A7, Canada",R3B,R2P
1329360,49.8208771,-97.1820175,"1539 Waverley Street, Winnipeg, MB R3T 4V7, Canada",R3T,R3Y
1329465,49.8072142,-97.1378001,"Joyce Fromson Pool, Winnipeg, MB R3E 1B4, Canada",R3E,R3T
1329480,49.88468,-97.1770017,"1041 Portage Avenue, Winnipeg, MB R4H 1C6, Canada",R4H,R3G
1329481,49.8461563,-97.1793893,"60 Hurst Way, Winnipeg, MB R3T 6C3, Canada",R3T,R3P
1329557,49.8166692,-99.6475104,"Shilo Road L-102, Shilo, MB R0K 2A0, Canada",R0K,R7A
1330205,49.8964401,-97.2099958,"Po Box 874, 660 Berry Street, Winnipeg, MB R3C 3S4, Canada",R3C,R3H
1330463,49.8741734,-97.1867475,"121 Queenston Street, Winnipeg, MB R2R 1G1, Canada",R2R,R3N
1330516,49.8433209,-97.1425227,"38 Ruttan Bay, Winnipeg, MB R3C 2Y5, Canada",R3C,R3T
1330553,49.919776,-97.0971624,"477 Trent Avenue, Winnipeg, MB R3T 2P2, Canada",R3T,R2K
1331198,49.8512239,-97.1438368,"391 Kingston Crescent, Winnipeg, MB R0C 2Z0, Canada",R0C,R2M
1331534,49.8821074,-97.2846856,"151 Greenway Crescent East #105, Winnipeg, MB R2M 2T4, Canada",R2M,R2Y
1331535,49.8821074,-97.2846856,"151 Greenway Crescent East #105, Winnipeg, MB R2M 2T4, Canada",R2M,R2Y
1331595,49.9225301,-97.1586209,"858 Magnus Avenue, Winnipeg, MB R2W 2B9, Canada",R2W,R2X
1331624,49.8757654,-97.1798783,"988 Wellington Crescent, Winnipeg, MB R3M 0C9, Canada",R3M,R3N
1331802,49.897404,-97.186927,"734 Spruce Street, Winnipeg, MB R3T 2P2, Canada",R3T,R3E
1332281,49.9419699,-97.1652558,"1377 Fife Street, Winnipeg, MB R3C 0G8, Canada",R3C,R2X
1332369,49.8958149,-97.1590594,"600 Sargent Avenue, Winnipeg, MB R3E 0A1, Canada",R3E,R3G
1332377,49.9048127,-97.1618157,"780 Bannatyne Avenue, Winnipeg, MB R3T 2N2, Canada",R3T,R3E
1332421,49.9133936,-97.1048327,"362 Martin Avenue West, Winnipeg, MB R3T 2P2, Canada",R3T,R2L
1332450,49.9233892,-97.0921254,"480 Kimberly Avenue, Winnipeg, MB R3B 1J1, Canada",R3B,R2K
1332453,49.8987952,-97.2237493,"2020 Sargent Avenue, Winnipeg, MB R3H 0Z7, Canada",R3H,R3J
1332643,49.9165936,-97.2189615,"3001 Notre Dame Avenue, Winnipeg, MB R3H 1B8, Canada",R3H,R2R
1332695,49.9450161,-97.1109416,"2021 Main Street, Winnipeg, MB R2V 2B9, Canada",R2V,R2G
1332730,49.8665329,-97.1793217,"411 Montrose Street, Winnipeg, MB R3M 3M2, Canada",R3M,R3N
1333389,49.836503,-97.1529678,"1044 Howard Avenue, Winnipeg, MB R3P 1C1, Canada",R3P,R3T
1333741,49.8912767,-97.1392939,"295 Garry Street, Winnipeg, MB R3H 0N1, Canada",R3H,R3C
1333746,49.8964401,-97.2099958,"Po Box 874, 660 Berry Street, Winnipeg, MB R3C 3S4, Canada",R3C,R3H
1333819,49.882263,-97.277446,"Grace Hospitial, Booth Drive, Winnipeg, MB R3Y 1G4, Canada",R3Y,R3J
1334116,49.880265,-97.271524,"200 Ronald Street #801, Winnipeg, MB R2Y 0L5, Canada",R2Y,R3J
1334172,49.8787254,-97.152558,"246 Roslyn Road, Winnipeg, MB R2M 2T4, Canada",R2M,R3L
1334855,50.2836586,-95.992914,"8 Riverland Road North, Lac du Bonnet, MB R2X 2V7, Canada",R2X,R0E
1335467,49.9059135,-97.0776903,"394 Keenleyside Street #24, Winnipeg, MB R2L 3B8, Canada",R2L,R2K
1335508,49.8706026,-97.2467168,"700 Assiniboine Park Drive, Winnipeg, MB R3P 2N9, Canada",R3P,R3N
1335888,49.8639972,-97.0742656,"985 Winakwa Road #202, Winnipeg, MB R3T 5K1, Canada",R3T,R2J
1336149,49.8502605,-97.2568775,"747 Elmhurst Road, Winnipeg, MB R2R 0V3, Canada",R2R,R3R
1336245,49.8093942,-97.1344793,"65 Chancellors Circle, Winnipeg, MB R3R 2N2, Canada",R3R,R3T
1336359,49.895768,-97.1392424,"161 Portage Avenue, Winnipeg, MB R2B 2L6, Canada",R2B,R3B
1336499,49.8746729,-97.2578298,"2510 Portage Avenue #416, Winnipeg, MB R2Y 0L5, Canada",R2Y,R3J
1336506,49.880265,-97.271524,"234 Ronald Street #604, Winnipeg, MB R2Y 0L5, Canada",R2Y,R3J
1336508,49.8746729,-97.2578298,"2510 Portage Avenue #420, Winnipeg, MB R2Y 0L5, Canada",R2Y,R3J
1336965,53.183982,-99.2675215,"Fish Hatchery, Grand Rapids, MB R5R 0C1, Canada",R5R,R0C
1337122,49.9731127,-98.2924804,"Voyageur Place Bldg.78, Southport, MB R3B 0N8, Canada",R3B,R1N
1337533,49.8093942,-97.1344793,"University Centre, L500, Winnipeg, MB R3E 2S4, Canada",R3E,R3T
1338080,49.9909,-97.036699,"Robert Andrews School, Manlius Street, Winnipeg, MB R2G 3S7, Canada",R2G,R2E
1338566,49.9145245,-97.1762639,"1222 Alexander Avenue, Winnipeg, MB R2X 0C9, Canada",R2X,R3E
1338679,49.9583591,-97.1757637,"1520 Jefferson Avenue, Winnipeg, MB R3T 2N6, Canada",R3T,R2P
1338698,49.875917,-97.2640018,"2575 Portage Avenue, Winnipeg, MB R3G 0P4, Canada",R3G,R3J
1338937,49.8950591,-97.1403564,"227 Portage Avenue, Winnipeg, MB R3J 0R2, Canada",R3J,R3B
1338940,53.183982,-99.2675215,"Fish Hatchery - Mb Hydro, Grand Rapids, MB R5R 0C1, Canada",R5R,R0C
1339297,49.8678409,-97.1366073,"60 Osborne Street, Winnipeg, MB R3H 0N1, Canada",R3H,R3L
1339298,49.8732402,-97.1538616,"277 Wellington Crescent, Winnipeg, MB R3L 0M6, Canada",R3L,R3M
1339541,49.8690381,-97.2104999,"215 Edgeland Boulevard #16, Winnipeg, MB R3N 1X7, Canada",R3N,R3P
1339702,49.8496514,-97.1999792,"1710 Taylor Avenue Unit 204, Winnipeg, MB R2X 2R7, Canada",R2X,R3N
1339797,49.8633429,-97.0283557,"560 Plessis Road, Winnipeg, MB R2C 2Z4, Canada",R2C,R2J
1340074,49.8457899,-99.9421907,"250 3rd Street, Brandon, MB R7B 3B9, Canada",R7B,R7A
1340421,49.9430752,-97.1322164,"524 Semple Avenue, Winnipeg, MB R3V 1C8, Canada",R3V,R2V
1340672,53.8182989,-101.2428986,"28 Tremauden Avenue, The Pas, MB R8A 1R2, Canada",R8A,R9A
1340906,49.8732402,-97.1538616,"277 Wellington Crescent, Winnipeg, MB R3L 0M6, Canada",R3L,R3M
1341399,49.8573477,-97.2053304,"3519 Grant Avenue #221, Winnipeg, MB R3M 2A6, Canada",R3M,R3N
1341405,49.8171812,-99.6471977,"Shilo Road M-101, Shilo, MB R0K 2A0, Canada",R0K,R7A
1341527,49.8171812,-99.6471977,"Shilo Road M-101, Shilo, MB R0K 2A0, Canada",R0K,R7A
1341531,49.8859503,-97.1551796,"195 Young Street Suite 902, Winnipeg, MB R3B 2H8, Canada",R3B,R3C
1341878,49.9043777,-97.1381923,"300 Princess Street, Winnipeg, MB R3B 1M3, Canada",R3B,R3A
1341998,49.8785925,-97.2726993,"Parking Garage, 2727 Portage Avenue, Winnipeg, MB R2Y 0L5, Canada",R2Y,R3J
1342379,49.8822538,-97.1360816,"200 River Avenue, Winnipeg, MB R3V 0B2, Canada",R3V,R3L
1342440,49.8766049,-97.1789981,"1015 Wellington Crescent, Winnipeg, MB R3M 0A7, Canada",R3M,R3N
1342511,49.880265,-97.271524,"234 Ronald Street #308, Winnipeg, MB R2Y 0L5, Canada",R2Y,R3J
1342664,49.8252133,-99.9642089,"1570 18th Street, Brandon, MB R7A 5C5, Canada",R7A,R7B
1343117,49.8678409,-97.1366073,"60 Osborne Street, Winnipeg, MB R3H 0N1, Canada",R3H,R3L
1343170,49.8955099,-97.0316934,"995 Regent Avenue West, Winnipeg, MB R3C 5E9, Canada",R3C,R2C
1343281,49.8746729,-97.2578298,"2510 Portage Avenue, Winnipeg, MB R3E 0W8, Canada",R3E,R3J
1343287,50.0621219,-97.2169948,"Stony Mountain, MB R0C 3A0, Canada",R0C,R3C
1343510,49.8171812,-99.6471977,"Shilo Road M-101, Shilo, MB R0K 2A0, Canada",R0K,R7A
1343667,49.8889861,-97.1596569,"320 Sherbrook Street, Winnipeg, MB R3E 2T1, Canada",R3E,R3B
1343797,49.8769445,-97.239445,"2181 Portage Avenue, Winnipeg, MB R3L 0L7, Canada",R3L,R3J
1344391,49.8785925,-97.2726993,"2727 Portage Avenue, Winnipeg, MB R3E 0W8, Canada",R3E,R3J
1344774,49.9043777,-97.1381923,"300 Princess Street, Winnipeg, MB R3B 1M3, Canada",R3B,R3A
1344777,49.9043777,-97.1381923,"300 Princess Street, Winnipeg, MB R3B 1M3, Canada",R3B,R3A
1344962,49.8836448,-97.2090237,"320 King Edward Street North, Winnipeg, MB R2C 2H8, Canada",R2C,R3J
1344968,49.8779659,-97.1204949,"209 Kenny Street, Winnipeg, MB R0A 0Y0, Canada",R0A,R2H
1345000,49.8804875,-97.2034002,"1661 Portage Avenue, Winnipeg, MB R3J 3T7, Canada",R3J,R3G
1345029,49.8804875,-97.2034002,"1661 Portage Avenue 10Th Floor, Winnipeg, MB R3J 3T7, Canada",R3J,R3G
1345376,49.8822538,-97.1360816,"200 River Avenue, Winnipeg, MB R3V 0B2, Canada",R3V,R3L
1345449,50.108344,-97.210373,"7059 75 Road North, Rockwood, MB R0H 1E0, Canada",R0H,R0C
1345769,49.9032033,-97.1568253,"Sherbrook Street, Sherbrook, MB R3A 1M4, Canada",R3A,R3E
1345800,49.9048127,-97.1618157,"780 Bannatyne Avenue, Winnipeg, MB R3T 2N2, Canada",R3T,R3E
1345811,49.8624731,-97.1601792,"981 Lorette Avenue, Winnipeg, MB R2V 4Y2, Canada",R2V,R3M
1345854,49.8804875,-97.2034002,"1661 Portage Avenue 6Th Floor, Winnipeg, MB R3J 3T7, Canada",R3J,R3G
1346133,49.8334101,-97.1153015,"11 Saint Michael Road #501, Winnipeg, MB R3E 0W8, Canada",R3E,R2M
1346137,49.7793783,-97.1590152,"3097 Pembina Highway #622, Winnipeg, MB R3E 0W8, Canada",R3E,R3T
1346221,49.8549479,-97.2665507,"622 Haney Street, Winnipeg, MB R2R 0Y8, Canada",R2R,R3R
1346599,49.9165936,-97.2189615,"3001 Notre Dame Avenue, Winnipeg, MB R3H 1B8, Canada",R3H,R2R
1346769,49.8201591,-97.2060406,"2245 McGillivray Boulevard, Winnipeg, MB R3Y 1S6, Canada",R3Y,R3P
1346798,49.8732402,-97.1538616,"277 Wellington Crescent, Winnipeg, MB R3L 0M6, Canada",R3L,R3M
1346814,49.8822538,-97.1360816,"200 River Avenue, Winnipeg, MB R3V 0B2, Canada",R3V,R3L
1347058,53.183982,-99.2675215,"30 Speers Rd Unit 129, Grand Rapids, Teacherage R2J 1L9, Canada",R2J,R0C
1347444,49.8630059,-97.2010349,"538 Centennial Street, Winnipeg, MB R3N 1P9, Canada",R3N ,R3N
1347559,49.8954221,-97.1385145,"230 Bridge Street, Winnipeg, MB R0L 2G0, Canada",R0L,R3B
1347691,50.108344,-97.210373,"7059 75 Road North, Rockwood, MB R0H 1E0, Canada",R0H,R0C
1347749,49.8490553,-99.9625636,"20 18th Street, Brandon, MB R7A 5A3, Canada",R7A,R7B
1347927,49.8746729,-97.2578298,"2510 Portage Avenue #622, Winnipeg, MB R3E 0W8, Canada",R3E,R3J
1348065,53.183982,-99.2675215,"Fish Hatchery, Grand Rapids, MB R5R 0C1, Canada",R5R,R0C
1348288,49.8797074,-97.1030622,"505 Tremblay Street, Winnipeg, MB R2J 0N5, Canada",R2J,R2H
1348458,49.9323455,-97.18885,"1605 Magnus Avenue Units 4  5, Winnipeg, MB R2W 1E7, Canada",R2W,R2X
1348508,49.8993484,-97.1370698,"555 Main Street, Winnipeg, MB R2B 1C3, Canada",R2B,R3B
1348676,49.867014,-97.1750122,"391 Cambridge Street, Winnipeg, MB R2M 3E8, Canada",R2M,R3M
1348740,49.8128453,-97.1603484,"30A West Lake Crescent #1301, Winnipeg, MB R3E 0W8, Canada",R3E,R3T
1348796,49.898647,-97.146426,"65 Ellen Street, Winnipeg, MB R3A 0Z8, Canada",R3A,R3B
1349189,49.8847646,-97.2804081,"700 Setter Street #1102, Winnipeg, MB R3E 0W8, Canada",R3E,R2Y
1349196,49.8746729,-97.2578298,"2510 Portage Avenue #212, Winnipeg, MB R3E 0W8, Canada",R3E,R3J
1349197,49.8746729,-97.2578298,"2510 Portage Avenue #212, Winnipeg, MB R3E 0W8, Canada",R3E,R3J
1349246,50.2558206,-98.048896,"Road 85 North, Saint Ambroise, MB R3E 2K7, Canada",R3E,R0H
1349616,49.8732402,-97.1538616,"277 Wellington Crescent, Winnipeg, MB R3L 0M6, Canada",R3L,R3M
1349671,49.9010692,-97.0651665,"66 Stapon Road, Winnipeg, MB R3C 3M2, Canada",R3C,R3W
1349943,49.8847646,-97.2804081,"700 Setter Street #1209, Winnipeg, MB R3E 0W8, Canada",R3E,R2Y
1350598,49.882263,-97.277446,"Grace Hospital, Booth Drive, Winnipeg, MB R3H 1G4, Canada",R3H,R3J
1351532,37.7817166,-82.3373685,"78 U.S. 52 West, Steinbach, MB R0A 2A0, Canada",R0A,
1351586,49.9577433,-97.1406371,"957 Beecher Avenue, Winnipeg, MB R2V 4R6, Canada",R2V,R2P
1351672,49.9364483,-96.9337095,"63068 Deacon Road, Dugald, MB R0E 0K0, Canada",R0E,R2C
1351713,49.8195079,-99.9735736,"1906 26th Street, Brandon, MB R7B 3Y2, Canada",R7B,R7A
1351822,49.931019,-98.2431824,"33046 Manitoba 331, Southport, MB R3G 2C5, Canada",R3G,R1N
1352055,49.8719959,-97.1505199,"665 Corydon Avenue, Winnipeg, MB R3C 2E6, Canada",R3C,R3L
1352343,49.720713,-97.1751929,"4403 Waverley Road, Richot, MB R2H 3H4, Canada",R2H,R5A
1352358,49.9111615,-97.1142701,"137 Stanier Street, Winnipeg, MB R2X 0A2, Canada",R2X,R2L
1352373,49.9018075,-97.0147661,"439 Harold Avenue West, Winnipeg, MB R2R 4T3, Canada",R2R,R2C
1352513,49.8624188,-97.1575981,"910 Scotland Avenue, Winnipeg, MB R3C 0G8, Canada",R3C,R3M
1352685,49.9119797,-97.183731,"1887 Pacific Avenue, Winnipeg, MB R2R 0G2, Canada",R2R,R3E
1352733,49.9364774,-97.118393,"1750 Main Street Unit 105, Winnipeg, MB R2W 5J8, Canada",R2W,R2V
1353091,49.8896199,-97.3035504,"305 Morgan Crescent, Winnipeg, MB R2L 1M1, Canada",R2L,R2Y
1353195,49.8732402,-97.1538616,"277 Wellington Crescent, Winnipeg, MB R3L 0M6, Canada",R3L,R3M
1353196,49.8732402,-97.1538616,"277 Wellington Crescent, Winnipeg, MB R3L 0M6, Canada",R3L,R3M
1353361,50.1818709,-96.8465264,"1147 Breezy Point Road, Clandeboye, MB R0C 0P0, Canada",R0C,R1A
1353603,49.880265,-97.271524,"200 Ronald Street, Winnipeg, MB R2Y 0L5, Canada",R2Y,R3J
1354032,49.8785925,-97.2726993,"2727 Portage Avenue, Winnipeg, MB R2Y 0L5, Canada",R2Y,R3J
1354237,50.0714978,-96.8779848,"72120 Parkside Drive, East Selkirk, MB R0E 0M0, Canada",R0E,R1A
1354259,49.943816,-97.1043039,"2015 Main Street, Winnipeg, MB R2V 2B9, Canada",R2V,R2G
1354418,49.8804875,-97.2034002,"1661 Portage Avenue 2 Floor, Winnipeg, MB R3J 3T7, Canada",R3J,R3G
1354532,49.9133177,-97.0815825,"745 Moncton Avenue, Winnipeg, MB R2V 4Y2, Canada",R2V,R2K
1354548,49.8437486,-99.9514807,"Ne1/4 10-1-18, Brandon, MB R0L 0Y0, Canada",R0L,R7A
1354927,49.8748568,-97.1774678,"920 Wellington Crescent, Winnipeg, MB R3M 0C7, Canada",R3M,R3N
1355092,49.8827969,-97.1165365,"261 Goulet Street B135, Winnipeg, MB R3E 0W8, Canada",R3E,R2H
1355104,49.8746729,-97.2578298,"2510 Portage Avenue #217, Winnipeg, MB R3E 0W8, Canada",R3E,R3J
1355212,49.8847196,-97.1412015,"15 Carlton Street #509, Winnipeg, MB R3E 0W8, Canada",R3E,R3C
1355257,49.8784531,-97.1817008,"1075 Wellington Crescent, Winnipeg, MB R3C 0N2, Canada",R3C,R3N
1355261,49.9450161,-97.1109416,"2021 Main Street, Winnipeg, MB R2V 2B9, Canada",R2V,R2G
1355262,49.920147,-96.9794492,"1300 Church Ave, Sunnyside, MB R5R 0C5, Canada",R5R,R2C
1355725,49.896285,-97.1202047,"744 Langevin Street, Winnipeg, MB R0A 0Y0, Canada",R0A,R2H
1355765,49.8093942,-97.1344793,"University Centre, Chancellors Circle Bathroom 1110C, Winnipeg, MB R3E 2S4, Canada",R3E,R3T
1355907,49.8870438,-97.1438645,"373 Broadway, Winnipeg, MB R2C 3L6, Canada",R2C,R3C
1356014,49.8847646,-97.2804081,"700 Setter Street G2, Winnipeg, MB R3E 0W8, Canada",R3E,R2Y
1356244,49.9317813,-97.0762864,"632 Oakland Avenue, Winnipeg, MB R2G 0B8, Canada",R2G,R2K
1356357,49.8732402,-97.1538616,"277 Wellington Crescent, Winnipeg, MB R3L 0M6, Canada",R3L,R3M
1356374,49.8847646,-97.2804081,"700 Setter Street G2, Winnipeg, MB R3E 0W8, Canada",R3E,R2Y
1356380,49.8847646,-97.2804081,"700 Setter Street #210, Winnipeg, MB R3E 0W8, Canada",R3E,R2Y
1356809,50.2625413,-96.9841797,"#110, Craig, MB R2X 1G4, Canada",R2X,R0C
1356824,53.183982,-99.2675215,"Hydro: Grand Rapid Fish Hatchery, Grand Rapids, MB R5R 0C1, Canada",R5R,R0C
1357299,49.8585354,-97.2595549,"515 Laxdal Road A202, Winnipeg, MB R2Y 0L5, Canada",R2Y,R3R
1357799,49.9552817,-97.1488958,"2300 McPhillips Street, Winnipeg, MB R2V 3M3, Canada",R2V,R2P
1357890,49.8901853,-97.0237473,"1199 Plessis Road, Winnipeg, MB R2J 4A8, Canada",R2J,R2C
1357898,49.8804875,-97.2034002,"1661 Portage Avenue, Winnipeg, MB R3J 3T7, Canada",R3J,R3G
1357931,49.8179832,-97.1151398,"1680 Saint Mary's Road #22, Winnipeg, MB R2M 5A4, Canada",R2M,R2N
1357933,49.9046463,-97.1612427,"770 Bannatyne Avenue, Winnipeg, MB R3T 2N2, Canada",R3T,R3E
1358140,49.8787254,-97.152558,"246 Roslyn Road, Winnipeg, MB R2M 2T4, Canada",R2M,R3L
1358356,50.0319172,-97.3899793,"81150 Road 3 East, Stonewall, MB R3E 2T1, Canada",R3E,R0H
1358560,49.8515226,-97.1874778,"1622 Mathers Bay West, Winnipeg, MB R3N 0T7, Canada",R3N,R3P
1358600,49.8514774,-97.2003473,"829 Lanark Street, Winnipeg, MB R3M 1M5, Canada",R3M,R3N
1358905,49.89567,-97.21845,"900 Ferry Road, Winnipeg, MB R3H 0Y8, Canada",R3H,R3J
1359109,49.8338191,-97.2332478,"1520 McCreary Road, Winnipeg, MB R3P 0M7, Canada",R3P,R3S
1359142,49.5220634,-96.67406,"530 Wilson Street, Steinbach, MB R3G 0J5, Canada",R3G,R5G
1359148,49.8732402,-97.1538616,"277 Wellington Crescent, Winnipeg, MB R3L 0M6, Canada",R3L,R3M
1359353,53.183982,-99.2675215,"Generating Station, Grand Rapids, MB R3C 0G8, Canada",R3C,R0C
1359357,49.823981,-97.151558,"1824 Pembina Highway, Winnipeg, MB R3C 0B8, Canada",R3C,R3T
1359370,49.8746729,-97.2578298,"2510 Portage Avenue #112, Winnipeg, MB R3E 0W8, Canada",R3E,R3J
1359405,49.9046463,-97.1612427,"770 Bannatyne Avenue, Winnipeg, MB R3T 2N2, Canada",R3T,R3E
1360011,49.902279,-97.2220431,"800 Powerhouse Road, Winnipeg, MB R3C 0N2, Canada",R3C,R3H
1360292,49.8731363,-97.1814346,"181 Oak Street, Winnipeg, MB R3M 3P7, Canada",R3M,R3N
1360414,49.9492644,-97.087477,"35 Valhalla Drive #302, Winnipeg, MB R2X 0A1, Canada",R2X,R2G
1360915,49.8655703,-97.2002343,"467 Beaverbrook Street, Winnipeg, MB R2N 1N2, Canada",R2N,R3N
1360938,49.9371284,-97.1968922,"55 Smithurst Street Unit 20, Winnipeg, MB R3E 2S4, Canada",R3E,R2R
1361009,49.80518,-97.15697,"2393 Pembina Highway, Winnipeg, MB R3E 0W8, Canada",R3E,R3T
1361013,49.80518,-97.15697,"2393 Pembina Highway, Winnipeg, MB R3E 0W8, Canada",R3E,R3T
1361268,49.880265,-97.271524,"200 Ronald Street #1515, Winnipeg, MB R2Y 0L5, Canada",R2Y,R3J
1361284,49.8746729,-97.2578298,"2510 Portage Avenue #301, Winnipeg, MB R3E 0W8, Canada",R3E,R3J
1361769,50.1361522,-97.2957006,"095 East Drive #6, Stonewall, MB R3C 0G8, Canada",R3C,R0C
1361909,49.8954221,-97.1385145,"262 Hamilton B212, Winnipeg, MB R3E 0W8, Canada",R3E,R3B
1362076,49.8732402,-97.1538616,"277 Wellington Crescent, Winnipeg, MB R3L 0M6, Canada",R3L,R3M
1362100,49.8817363,-97.2070585,"261 Queen Street #103, Winnipeg, MB R3R 0E5, Canada",R3R,R3J
1362107,49.8746729,-97.2578298,"2510 Portage Avenue #215, Winnipeg, MB R3E 0W8, Canada",R3E,R3J
1362108,49.8746729,-97.2578298,"2510 Portage Avenue #409, Winnipeg, MB R3E 0W8, Canada",R3E,R3J
1362186,49.8817363,-97.2070585,"261 Queen Street #405, Winnipeg, MB R3R 0E5, Canada",R3R,R3J
1362190,49.8817363,-97.2070585,"261 Queen Street #505, Winnipeg, MB R3R 0E5, Canada",R3R,R3J
1362354,49.8875537,-97.1613601,"294 Portage Avenue, Winnipeg, MB R2W 1L3, Canada",R2W,R3G
1362358,49.8109431,-97.1338575,"Armes, 308 Sifton Road, Winnipeg, MB R2W 1L3, Canada",R2W,R3T
1362553,49.8954221,-97.1385145,"7Km N Off Pth, 2Mile  N On Gravel, 224 N 1 Mile Rtur Jackhead - 58, Winnipeg, MB R0C 2P0, Canada",R0C,R3B
1362957,49.8106796,-97.1338181,"30 A Sifton Road, Winnipeg, MB R2W 1L3, Canada",R2W,R3T
1362958,49.8710874,-97.1427732,"332 Nassau Street North, Winnipeg, MB R3L 0R8, Canada",R3L,R3M
1363389,49.8732078,-97.1243647,"60 Monck Avenue, Winnipeg, MB R3E 2K7, Canada",R3E,R2H
1363490,54.9129411,-98.6221109,"63 Lakeside Drive, Wabowden, MB R3E 0M4, Canada",R3E,R0B
1363544,49.8901853,-97.0237473,"1199 Plessis Road, Winnipeg, MB R2J 4A8, Canada",R2J,R2C
1363618,49.6492464,-97.1187798,"1290 Research Station Road No 3B, Glenlea, MB R0G 0S0, Canada",R0G,R5A
1363957,49.8857969,-97.2344579,"2055 Ness Avenue, Winnipeg, MB R3B 1J1, Canada",R3B,R3J
1364214,49.882263,-97.277446,"Grace Hospital, Booth Drive, Winnipeg, MB R3Y 1G4, Canada",R3Y,R3J
1364462,49.8732402,-97.1538616,"277 Wellington Crescent, Winnipeg, MB R3L 0M6, Canada",R3L,R3M
1364650,49.8103639,-97.1605117,"14 Sandy Lake Place, Winnipeg, MB R3E 2S4, Canada",R3E,R3T
1364756,49.8093942,-97.1344793,"65 Chancellors Circle, Winnipeg, MB R2J 4A8, Canada",R2J,R3T
1364839,49.8706026,-97.2467168,"700 Assiniboine Park Drive, Winnipeg, MB R3P 2N9, Canada",R3P,R3N
1364961,49.85562,-97.28533,"571 Harstone Road, Winnipeg, MB R3X 0G3, Canada",R3X,R3R
1364965,49.8670868,-97.1873635,"375 Queenston Street, Winnipeg, MB R2C 3K1, Canada",R2C,R3N
1365384,49.9059135,-97.0776903,"394 Keenleyside Street #64, Winnipeg, MB R3B 2H8, Canada",R3B,R2K
1365477,49.8746729,-97.2578298,"2510 Portage Avenue #222, Winnipeg, MB R3E 0W8, Canada",R3E,R3J
1365764,49.8954221,-97.1385145,"838 Hamilton A215, Winnipeg, MB R3E 0W8, Canada",R3E,R3B
1365769,49.8847646,-97.2804081,"700 Setter Street #401, Winnipeg, MB R3E 0W8, Canada",R3E,R2Y
1366055,49.8954221,-97.1385145,"1633 Dublin, Winnipeg, MB R2K 1S6, Canada",R2K,R3B
1366077,49.8847613,-97.1406955,"375 Assiniboine Avenue #1007, Winnipeg, MB R3B 2H8, Canada",R3B,R3C
1366101,49.8901853,-97.0237473,"1199 Plessis Road, Winnipeg, MB R2J 4A8, Canada",R2J,R2C
1366195,49.9520746,-97.1094455,"2230 Main Street, Winnipeg, MB R2B 4T8, Canada",R2B,R2V
1366230,49.8847646,-97.2804081,"700 Setter Street #540, Winnipeg, MB R3E 0W8, Canada",R3E,R2Y
1366319,49.9520746,-97.1094455,"2230 Main Street, Winnipeg, MB R3B 1J1, Canada",R3B,R2V
1366322,49.9000917,-97.1546545,"563 Notre Dame Avenue, Winnipeg, MB R3B 1S5, Canada",R3B,R3A
1366447,49.8934701,-97.3290152,"3975 Portage Avenue, Winnipeg, MB R3K 2E9, Canada",R3K,R2Y
1366450,49.8746729,-97.2578298,"2510 Portage Avenue #215, Winnipeg, MB R3E 0W8, Canada",R3E,R3J
1366458,49.9318183,-97.1736223,"1345 Redwood Avenue, Winnipeg, MB R2J 4A8, Canada",R2J,R2X
1366538,49.8804875,-97.2034002,"1661 Portage Avenue, Winnipeg, MB R3J 3T7, Canada",R3J,R3G
1366678,49.8896278,-97.1440715,"185 Carlton Street, Winnipeg, MB R3E 2T1, Canada",R3E,R3C
1366716,49.8993784,-97.1393637,"510 Main Street, Winnipeg, MB R3L 0E3, Canada",R3L,R3B
1366750,49.8686999,-99.933375,"1035 1st Street North, Brandon, MB R0K 0W0, Canada",R0K,R7A
1366783,49.8787254,-97.152558,"246 Roslyn Road, Winnipeg, MB R2M 2T4, Canada",R2M,R3L
1366868,49.8637085,-99.968036,"Grand Valley Road, Brandon, MB R7C 1A1, Canada",R7C,R7B
1367078,49.8847646,-97.2804081,"700 Setter Street #1115, Winnipeg, MB R3E 0W8, Canada",R3E,R2Y
1367163,49.8941158,-97.1432501,"1661 Portage Avenue, Winnipeg, MB R2J 0J9, Canada",R2J,R3B
1367315,49.9051141,-97.0617933,"1600 Ravelston Avenue West, Winnipeg, MB R0E 0C0, Canada",R0E,R3W
1677486,49.8847646,-97.2804081,"700 Setter Street #801, Winnipeg, MB R3E 0W8, Canada",R3E,R2Y
1677487,49.8847646,-97.2804081,"700 Setter Street #801, Winnipeg, MB R3E 0W8, Canada",R3E,R2Y
1677491,49.8334101,-97.1153015,"11 Saint Michael Road #209, Winnipeg, MB R3E 0W8, Canada",R3E,R2M
1677502,49.8847196,-97.1412015,"15 Carlton Street #204, Winnipeg, MB R3E 0W8, Canada",R3E,R3C
1680615,49.8706026,-97.2467168,"700 Assiniboine Park Drive, Winnipeg, MB R2J 3V4, Canada",R2J,R3N
1681708,49.9067711,-96.9924528,"359 Dowling Avenue East, Winnipeg, MB R3C 3M4, Canada",R3C,R2C
